[
  {
    "id": "1093",
    "name": "Station Service Tuyttens",
    "brand": "",
    "address": "Grand Rue 87, 7700 Mouscron",
    "lat": 50.726579150181,
    "lng": 3.1946253816147,
    "fuel": "95",
    "fuel_name": "Super 95 (E5)",
    "price": 0.0,
    "update_date": "",
    "url": "https://carbu.com/belgique/index.php/station/vrijlibre/mouscron/7700/1093",
    "source_city": "Tournai",
    "source_cp": "7500",
    "location_id": "BE_ht_2098"
  },
  {
    "id": "19006",
    "name": "Gabriëls Oostende",
    "brand": "gabriels.gif",
    "address": "Brugsesteenweg 4, 8400 Ostende",
    "lat": 51.219148344186,
    "lng": 2.9667025978194,
    "fuel": "95",
    "fuel_name": "Super 95 (E10)",
    "price": 1.559,
    "update_date": "29/06/26",
    "url": "https://carbu.com/belgique/index.php/station/gabriels/ostende/8400/19006",
    "source_city": "Oostende",
    "source_cp": "8400",
    "location_id": "BE_foc_2326"
  },
  {
    "id": "20168",
    "name": "PMO",
    "brand": "66_D2404-37534 PMO Logo2.jpg",
    "address": "Brugsesteenweg 38, 8400 Ostende",
    "lat": 51.219605370548,
    "lng": 2.968600849321,
    "fuel": "95",
    "fuel_name": "Super 95 (E10)",
    "price": 1.559,
    "update_date": "29/06/26",
    "url": "https://carbu.com/belgique/index.php/station/pmo/ostende/8400/20168",
    "source_city": "Oostende",
    "source_cp": "8400",
    "location_id": "BE_foc_2326"
  },
  {
    "id": "1386",
    "name": "Gabriels Lichtaart",
    "brand": "gabriels.gif",
    "address": "Herentalsesteenweg 17, 2460 Kasterlee",
    "lat": 51.222069466735,
    "lng": 4.9120963141556,
    "fuel": "95",
    "fuel_name": "Super 95 (E10)",
    "price": 1.606,
    "update_date": "29/06/26",
    "url": "https://carbu.com/belgique/index.php/station/gabriels/kasterlee/2460/1386",
    "source_city": "Turnhout",
    "source_cp": "2300",
    "location_id": "BE_a_361"
  },
  {
    "id": "21849",
    "name": "Maes Sterrebeek",
    "brand": "46_MAES LOGO rgb.jpg",
    "address": "Avenue du tram 346, 1933 Sterrebeek",
    "lat": 50.862204149771,
    "lng": 4.4880384548019,
    "fuel": "95",
    "fuel_name": "Super 95 (E10)",
    "price": 1.606,
    "update_date": "29/06/26",
    "url": "https://carbu.com/belgique/index.php/station/maes/sterrebeek/1933/21849",
    "source_city": "Vilvoorde",
    "source_cp": "1800",
    "location_id": "BE_bf_272"
  },
  {
    "id": "829",
    "name": "Lukoil Aywaille",
    "brand": "lukoil.gif",
    "address": "Avenue De La Porallée 53, 4920 Aywaille",
    "lat": 50.4782790384,
    "lng": 5.6957998653679,
    "fuel": "95",
    "fuel_name": "Super 95 (E10)",
    "price": 1.621,
    "update_date": "29/06/26",
    "url": "https://carbu.com/belgique/index.php/station/lukoil/aywaille/4920/829",
    "source_city": "Verviers",
    "source_cp": "4800",
    "location_id": "BE_lg_1140"
  },
  {
    "id": "905",
    "name": "Lukoil Nivelles",
    "brand": "lukoil.gif",
    "address": "Chaussée de Mons 4-6, 1400 Nivelles",
    "lat": 50.590061217038,
    "lng": 4.3137606478157,
    "fuel": "95",
    "fuel_name": "Super 95 (E10)",
    "price": 1.622,
    "update_date": "29/06/26",
    "url": "https://carbu.com/belgique/index.php/station/lukoil/nivelles/1400/905",
    "source_city": "Nivelles",
    "source_cp": "1400",
    "location_id": "BE_bw_153"
  },
  {
    "id": "3882",
    "name": "T-Express Nivelles",
    "brand": "321_TexpressLogo.png",
    "address": "Faubourg de Mons 96, 1400 Nivelles",
    "lat": 50.591008589492,
    "lng": 4.315039372195,
    "fuel": "95",
    "fuel_name": "Super 95 (E10)",
    "price": 1.622,
    "update_date": "29/06/26",
    "url": "https://carbu.com/belgique/index.php/station/t-express/nivelles/1400/3882",
    "source_city": "Nivelles",
    "source_cp": "1400",
    "location_id": "BE_bw_153"
  },
  {
    "id": "4398",
    "name": "Lukoil Rodange",
    "brand": "lukoil.gif",
    "address": "Route de Longwy 426, 4832 Rodange",
    "lat": 49.542689998337,
    "lng": 5.8169845282417,
    "fuel": "95",
    "fuel_name": "Super 95 (E5)",
    "price": 1.628,
    "update_date": "29/06/26",
    "url": "https://carbu.com/belgique/index.php/station/lukoil/rodange/4832/4398",
    "source_city": "Arlon",
    "source_cp": "6700",
    "location_id": "BE_lu_1745"
  },
  {
    "id": "1981",
    "name": "Esso Express Kruishoutem",
    "brand": "esso_express.gif",
    "address": "Deinsesteenweg 31, 9770 Kruishoutem",
    "lat": 50.91824021599,
    "lng": 3.5298721398811,
    "fuel": "95",
    "fuel_name": "Super 95 (E10)",
    "price": 1.629,
    "update_date": "29/06/26",
    "url": "https://carbu.com/belgique/index.php/station/esso-express/kruishoutem/9770/1981",
    "source_city": "Waregem",
    "source_cp": "8790",
    "location_id": "BE_foc_2484"
  },
  {
    "id": "4302",
    "name": "Esso Express Nivelles",
    "brand": "esso_express.gif",
    "address": "Chaussée de Mons 15, 1400 Nivelles",
    "lat": 50.588972246069,
    "lng": 4.3118172037048,
    "fuel": "95",
    "fuel_name": "Super 95 (E10)",
    "price": 1.629,
    "update_date": "29/06/26",
    "url": "https://carbu.com/belgique/index.php/station/esso-express/nivelles/1400/4302",
    "source_city": "Nivelles",
    "source_cp": "1400",
    "location_id": "BE_bw_153"
  },
  {
    "id": "275",
    "name": "Gabriels Deinze",
    "brand": "gabriels.gif",
    "address": "Gaversesteenweg 307, 9800 Deinze",
    "lat": 50.96453963,
    "lng": 3.548501016,
    "fuel": "95",
    "fuel_name": "Super 95 (E10)",
    "price": 1.629,
    "update_date": "29/06/26",
    "url": "https://carbu.com/belgique/index.php/station/gabriels/deinze/9800/275",
    "source_city": "Waregem",
    "source_cp": "8790",
    "location_id": "BE_foc_2484"
  },
  {
    "id": "1187",
    "name": "Shell Nivelles",
    "brand": "shell.gif",
    "address": "Avenue de la Tour de Guet 3, 1400 Nivelles",
    "lat": 50.592024370996,
    "lng": 4.3188194232788,
    "fuel": "95",
    "fuel_name": "Super 95 (E10)",
    "price": 1.629,
    "update_date": "29/06/26",
    "url": "https://carbu.com/belgique/index.php/station/shell/nivelles/1400/1187",
    "source_city": "Nivelles",
    "source_cp": "1400",
    "location_id": "BE_bw_153"
  },
  {
    "id": "965",
    "name": "Lukoil Webbekom",
    "brand": "lukoil_express.jpg",
    "address": "Halensebaan 121, 3290 Webbekom",
    "lat": 50.968853092944,
    "lng": 5.0745235631599,
    "fuel": "95",
    "fuel_name": "Super 95 (E10)",
    "price": 1.631,
    "update_date": "29/06/26",
    "url": "https://carbu.com/belgique/index.php/station/lukoil-express/webbekom/3290/965",
    "source_city": "Beringen",
    "source_cp": "3580",
    "location_id": "BE_li_629"
  },
  {
    "id": "2134",
    "name": "Shell Express Nivelles Zoning",
    "brand": "109_Shell_Express_Logo.png",
    "address": "Chaussée de Namur 52, 1400 Nivelles",
    "lat": 50.597456508075,
    "lng": 4.3568410624962,
    "fuel": "95",
    "fuel_name": "Super 95 (E10)",
    "price": 1.632,
    "update_date": "26/06/26",
    "url": "https://carbu.com/belgique/index.php/station/shell-express/nivelles/1400/2134",
    "source_city": "Ottignies-Louvain-la-Neuve",
    "source_cp": "1340",
    "location_id": "BE_bw_102"
  },
  {
    "id": "19479",
    "name": "DATS 24 Kampenhout",
    "brand": "dats24.gif",
    "address": "Mechelsesteenweg 55, 1910 Kampenhout",
    "lat": 50.958566629852,
    "lng": 4.5880862021485,
    "fuel": "95",
    "fuel_name": "Super 95 (E10)",
    "price": 1.636,
    "update_date": "29/06/26",
    "url": "https://carbu.com/belgique/index.php/station/dats24/kampenhout/1910/19479",
    "source_city": "Mechelen",
    "source_cp": "2800",
    "location_id": "BE_a_424"
  },
  {
    "id": "26",
    "name": "Haacht Maes",
    "brand": "46_MAES LOGO rgb.jpg",
    "address": "Stationstraat 85, 3150 Haacht",
    "lat": 50.974789155642,
    "lng": 4.6296498736801,
    "fuel": "95",
    "fuel_name": "Super 95 (E10)",
    "price": 1.636,
    "update_date": "29/06/26",
    "url": "https://carbu.com/belgique/index.php/station/maes/haacht/3150/26",
    "source_city": "Leuven",
    "source_cp": "3000",
    "location_id": "BE_bf_468"
  },
  {
    "id": "3848",
    "name": "Lukoil Gembloux",
    "brand": "lukoil.gif",
    "address": "Chaussée de Charleroi 247, 5030 Gembloux",
    "lat": 50.551699791955,
    "lng": 4.6668882625656,
    "fuel": "95",
    "fuel_name": "Super 95 (E10)",
    "price": 1.636,
    "update_date": "29/06/26",
    "url": "https://carbu.com/belgique/index.php/station/lukoil/gembloux/5030/3848",
    "source_city": "Gembloux",
    "source_cp": "5030",
    "location_id": "BE_nm_1222"
  },
  {
    "id": "790",
    "name": "Lukoil Kampenhout",
    "brand": "lukoil.gif",
    "address": "Haachtsesteenweg 701, 1910 Kampenhout",
    "lat": 50.960701,
    "lng": 4.6002727116394,
    "fuel": "95",
    "fuel_name": "Super 95 (E10)",
    "price": 1.636,
    "update_date": "29/06/26",
    "url": "https://carbu.com/belgique/index.php/station/lukoil/kampenhout/1910/790",
    "source_city": "Mechelen",
    "source_cp": "2800",
    "location_id": "BE_a_424"
  },
  {
    "id": "1021",
    "name": "Maes Boortmeerbeek",
    "brand": "46_MAES LOGO rgb.jpg",
    "address": "Leuvensesteenweg 216, 3190 Boortmeerbeek",
    "lat": 50.9764984,
    "lng": 4.5603788,
    "fuel": "95",
    "fuel_name": "Super 95 (E10)",
    "price": 1.636,
    "update_date": "29/06/26",
    "url": "https://carbu.com/belgique/index.php/station/maes/boortmeerbeek/3190/1021",
    "source_city": "Mechelen",
    "source_cp": "2800",
    "location_id": "BE_a_424"
  },
  {
    "id": "4595",
    "name": "Maes Hever",
    "brand": "46_MAES LOGO rgb.jpg",
    "address": "Leuvensesteenweg 75, 3191 Hever",
    "lat": 50.9901854,
    "lng": 4.5390062,
    "fuel": "95",
    "fuel_name": "Super 95 (E10)",
    "price": 1.636,
    "update_date": "29/06/26",
    "url": "https://carbu.com/belgique/index.php/station/maes/hever/3191/4595",
    "source_city": "Mechelen",
    "source_cp": "2800",
    "location_id": "BE_a_424"
  },
  {
    "id": "1024",
    "name": "Maes Kampenhout",
    "brand": "46_MAES LOGO rgb.jpg",
    "address": "Leuvensesteenweg 75, 1910 Kampenhout",
    "lat": 50.9538816,
    "lng": 4.5956564,
    "fuel": "95",
    "fuel_name": "Super 95 (E10)",
    "price": 1.636,
    "update_date": "29/06/26",
    "url": "https://carbu.com/belgique/index.php/station/maes/kampenhout/1910/1024",
    "source_city": "Mechelen",
    "source_cp": "2800",
    "location_id": "BE_a_424"
  },
  {
    "id": "1528",
    "name": "Q8 Easy Boortmeerbeek",
    "brand": "q8_easy.gif",
    "address": "Leuvensesteenweg 327, 3190 Boortmeerbeek",
    "lat": 50.969376,
    "lng": 4.571551,
    "fuel": "95",
    "fuel_name": "Super 95 (E10)",
    "price": 1.636,
    "update_date": "29/06/26",
    "url": "https://carbu.com/belgique/index.php/station/q8-easy/boortmeerbeek/3190/1528",
    "source_city": "Mechelen",
    "source_cp": "2800",
    "location_id": "BE_a_424"
  },
  {
    "id": "1370",
    "name": "Q8 Easy Hever",
    "brand": "q8_easy.gif",
    "address": "Blokstraat 1, 3191 Hever",
    "lat": 50.981560109684,
    "lng": 4.5440079497375,
    "fuel": "95",
    "fuel_name": "Super 95 (E10)",
    "price": 1.636,
    "update_date": "29/06/26",
    "url": "https://carbu.com/belgique/index.php/station/q8-easy/hever/3191/1370",
    "source_city": "Mechelen",
    "source_cp": "2800",
    "location_id": "BE_a_424"
  },
  {
    "id": "1537",
    "name": "Q8 easy Haacht",
    "brand": "q8_easy.gif",
    "address": "Keerbergsesteenweg 23, 3150 Haacht",
    "lat": 50.979758,
    "lng": 4.639889,
    "fuel": "95",
    "fuel_name": "Super 95 (E10)",
    "price": 1.636,
    "update_date": "29/06/26",
    "url": "https://carbu.com/belgique/index.php/station/q8-easy/haacht/3150/1537",
    "source_city": "Leuven",
    "source_cp": "3000",
    "location_id": "BE_bf_468"
  },
  {
    "id": "2353",
    "name": "Shell Express BOORTMEERBEEK",
    "brand": "109_Shell_Express_Logo.png",
    "address": "Leuvensesteenweg 236A, 3190 Boortmeerbeek",
    "lat": 50.974541575441,
    "lng": 4.5624536275864,
    "fuel": "95",
    "fuel_name": "Super 95 (E10)",
    "price": 1.636,
    "update_date": "26/06/26",
    "url": "https://carbu.com/belgique/index.php/station/shell-express/boortmeerbeek/3190/2353",
    "source_city": "Mechelen",
    "source_cp": "2800",
    "location_id": "BE_a_424"
  },
  {
    "id": "2015",
    "name": "Shell Express Schaerbeek",
    "brand": "109_Shell_Express_Logo.png",
    "address": "Chaussée de Louvain 622, 1030 Schaerbeek",
    "lat": 50.855424584377,
    "lng": 4.4006684920654,
    "fuel": "95",
    "fuel_name": "Super 95 (E10)",
    "price": 1.636,
    "update_date": "26/06/26",
    "url": "https://carbu.com/belgique/index.php/station/shell-express/schaerbeek/1030/2015",
    "source_city": "Vilvoorde",
    "source_cp": "1800",
    "location_id": "BE_bf_272"
  },
  {
    "id": "2293",
    "name": "T-Express Kampenhout",
    "brand": "321_TexpressLogo.png",
    "address": "Haachtsesteenweg 509, 1910 Kampenhout",
    "lat": 50.94948123659,
    "lng": 4.5795277744522,
    "fuel": "95",
    "fuel_name": "Super 95 (E10)",
    "price": 1.636,
    "update_date": "29/06/26",
    "url": "https://carbu.com/belgique/index.php/station/t-express/kampenhout/1910/2293",
    "source_city": "Mechelen",
    "source_cp": "2800",
    "location_id": "BE_a_424"
  },
  {
    "id": "3135",
    "name": "Twins Boortmeerbeek",
    "brand": "twins.gif",
    "address": "Provinciesteenweg 19, 3190 Boortmeerbeek",
    "lat": 50.961959144911,
    "lng": 4.6033231484795,
    "fuel": "95",
    "fuel_name": "Super 95 (E10)",
    "price": 1.636,
    "update_date": "27/06/26",
    "url": "https://carbu.com/belgique/index.php/station/twins/boortmeerbeek/3190/3135",
    "source_city": "Mechelen",
    "source_cp": "2800",
    "location_id": "BE_a_424"
  },
  {
    "id": "2137",
    "name": "Shell Express Gembloux",
    "brand": "109_Shell_Express_Logo.png",
    "address": "Chaussée De Charleroi 140, 5030 Gembloux",
    "lat": 50.559830511757,
    "lng": 4.6798002625655,
    "fuel": "95",
    "fuel_name": "Super 95 (E10)",
    "price": 1.638,
    "update_date": "26/06/26",
    "url": "https://carbu.com/belgique/index.php/station/shell-express/gembloux/5030/2137",
    "source_city": "Gembloux",
    "source_cp": "5030",
    "location_id": "BE_nm_1222"
  },
  {
    "id": "20154",
    "name": "Shell Express Les Isnes Gembloux",
    "brand": "109_Shell_Express_Logo.png",
    "address": "Chaussée de Namur 562, 5032 Isnes",
    "lat": 50.518146034345,
    "lng": 4.7652690515899,
    "fuel": "95",
    "fuel_name": "Super 95 (E10)",
    "price": 1.638,
    "update_date": "26/06/26",
    "url": "https://carbu.com/belgique/index.php/station/shell-express/isnes/5032/20154",
    "source_city": "Andenne",
    "source_cp": "5300",
    "location_id": "BE_nm_1284"
  },
  {
    "id": "1195",
    "name": "Esso Express Ligny",
    "brand": "esso_express.gif",
    "address": "Chaussée De Charleroi 187, 5140 Ligny",
    "lat": 50.504896905322,
    "lng": 4.5881143957008,
    "fuel": "95",
    "fuel_name": "Super 95 (E10)",
    "price": 1.639,
    "update_date": "29/06/26",
    "url": "https://carbu.com/belgique/index.php/station/esso-express/ligny/5140/1195",
    "source_city": "Gembloux",
    "source_cp": "5030",
    "location_id": "BE_nm_1222"
  },
  {
    "id": "21519",
    "name": "Gabriëls Diksmuide",
    "brand": "gabriels.gif",
    "address": "Esenweg 72, 8600 Diksmuide",
    "lat": 51.0316492,
    "lng": 2.8775274,
    "fuel": "95",
    "fuel_name": "Super 95 (E10)",
    "price": 1.639,
    "update_date": "29/06/26",
    "url": "https://carbu.com/belgique/index.php/station/gabriels/diksmuide/8600/21519",
    "source_city": "Oostende",
    "source_cp": "8400",
    "location_id": "BE_foc_2326"
  },
  {
    "id": "1139",
    "name": "Maes Schaerbeek",
    "brand": "46_MAES LOGO rgb.jpg",
    "address": "Chaussee De Louvain 742, 1030 Schaerbeek",
    "lat": 50.857024,
    "lng": 4.406322,
    "fuel": "95",
    "fuel_name": "Super 95 (E10)",
    "price": 1.639,
    "update_date": "29/06/26",
    "url": "https://carbu.com/belgique/index.php/station/maes/schaerbeek/1030/1139",
    "source_city": "Vilvoorde",
    "source_cp": "1800",
    "location_id": "BE_bf_272"
  },
  {
    "id": "3029",
    "name": "Pmo Automatic Beerst",
    "brand": "66_D2404-37534 PMO Logo2.jpg",
    "address": "Oostendestraat 47, 8600 Diksmuide",
    "lat": 51.045798077066,
    "lng": 2.8697229554336,
    "fuel": "95",
    "fuel_name": "Super 95 (E10)",
    "price": 1.639,
    "update_date": "29/06/26",
    "url": "https://carbu.com/belgique/index.php/station/pmo/diksmuide/8600/3029",
    "source_city": "Oostende",
    "source_cp": "8400",
    "location_id": "BE_foc_2326"
  },
  {
    "id": "3724",
    "name": "Shell Express Diksmuide",
    "brand": "109_Shell_Express_Logo.png",
    "address": "Kaaskerkestraat 152, 8600 Diksmuide",
    "lat": 51.037014,
    "lng": 2.830703,
    "fuel": "95",
    "fuel_name": "Super 95 (E10)",
    "price": 1.639,
    "update_date": "29/06/26",
    "url": "https://carbu.com/belgique/index.php/station/shell-express/diksmuide/8600/3724",
    "source_city": "Oostende",
    "source_cp": "8400",
    "location_id": "BE_foc_2326"
  },
  {
    "id": "1068",
    "name": "Shell Sauvenière",
    "brand": "shell.gif",
    "address": "Chaussee De Tirlemont 207, 5030 Sauvenière",
    "lat": 50.589764833576,
    "lng": 4.7195484513817,
    "fuel": "95",
    "fuel_name": "Super 95 (E10)",
    "price": 1.639,
    "update_date": "29/06/26",
    "url": "https://carbu.com/belgique/index.php/station/shell/sauveniere/5030/1068",
    "source_city": "Gembloux",
    "source_cp": "5030",
    "location_id": "BE_nm_1222"
  },
  {
    "id": "21366",
    "name": "Shell Sombreffe",
    "brand": "shell.gif",
    "address": "Chaussée de Nivelles 100, 5140 Sombreffe",
    "lat": 50.5260954,
    "lng": 4.5958622000001,
    "fuel": "95",
    "fuel_name": "Super 95 (E10)",
    "price": 1.639,
    "update_date": "29/06/26",
    "url": "https://carbu.com/belgique/index.php/station/shell/sombreffe/5140/21366",
    "source_city": "Gembloux",
    "source_cp": "5030",
    "location_id": "BE_nm_1222"
  },
  {
    "id": "3136",
    "name": "avia Kampenhout",
    "brand": "avia.gif",
    "address": "Leuvensesteenweg 132, 1910 Kampenhout",
    "lat": 50.947793341862,
    "lng": 4.6050102367706,
    "fuel": "95",
    "fuel_name": "Super 95 (E10)",
    "price": 1.639,
    "update_date": "29/06/26",
    "url": "https://carbu.com/belgique/index.php/station/avia/kampenhout/1910/3136",
    "source_city": "Leuven",
    "source_cp": "3000",
    "location_id": "BE_bf_468"
  },
  {
    "id": "249",
    "name": "DATS 24 Namur",
    "brand": "dats24.gif",
    "address": "Chaussée de Charleroi 153, 5000 Namur",
    "lat": 50.450572422999,
    "lng": 4.8346885507874,
    "fuel": "95",
    "fuel_name": "Super 95 (E10)",
    "price": 1.641,
    "update_date": "29/06/26",
    "url": "https://carbu.com/belgique/index.php/station/dats24/namur/5000/249",
    "source_city": "Andenne",
    "source_cp": "5300",
    "location_id": "BE_nm_1284"
  },
  {
    "id": "1131",
    "name": "Shell Malonne",
    "brand": "shell.gif",
    "address": "Chaussée de Charleroi 476, 5020 Malonne",
    "lat": 50.448756653126,
    "lng": 4.8290678397949,
    "fuel": "95",
    "fuel_name": "Super 95 (E10)",
    "price": 1.641,
    "update_date": "29/06/26",
    "url": "https://carbu.com/belgique/index.php/station/shell/malonne/5020/1131",
    "source_city": "Andenne",
    "source_cp": "5300",
    "location_id": "BE_nm_1284"
  },
  {
    "id": "167",
    "name": "DATS 24 Colruyt Nivelles",
    "brand": "dats24.gif",
    "address": "Chaussée de Bruxelles 178, 1400 Nivelles",
    "lat": 50.610587383227,
    "lng": 4.3371801104507,
    "fuel": "95",
    "fuel_name": "Super 95 (E10)",
    "price": 1.646,
    "update_date": "29/06/26",
    "url": "https://carbu.com/belgique/index.php/station/dats24/nivelles/1400/167",
    "source_city": "Nivelles",
    "source_cp": "1400",
    "location_id": "BE_bw_153"
  },
  {
    "id": "21558",
    "name": "Gabriels Hasselt",
    "brand": "gabriels.gif",
    "address": "LUIKERSTEENWEG 255, 3500 Hasselt",
    "lat": 50.911940496927,
    "lng": 5.3518160558927,
    "fuel": "95",
    "fuel_name": "Super 95 (E10)",
    "price": 1.646,
    "update_date": "29/06/26",
    "url": "https://carbu.com/belgique/index.php/station/gabriels/hasselt/3500/21558",
    "source_city": "Genk",
    "source_cp": "3600",
    "location_id": "BE_li_634"
  },
  {
    "id": "501",
    "name": "Gabriëls Diepenbeek",
    "brand": "gabriels.gif",
    "address": "Grendelbaan 5, 3590 Diepenbeek",
    "lat": 50.906140112219,
    "lng": 5.4297324024467,
    "fuel": "95",
    "fuel_name": "Super 95 (E10)",
    "price": 1.646,
    "update_date": "29/06/26",
    "url": "https://carbu.com/belgique/index.php/station/gabriels/diepenbeek/3590/501",
    "source_city": "Tongeren",
    "source_cp": "3700",
    "location_id": "BE_li_686"
  },
  {
    "id": "3730",
    "name": "Lukoil Express Hasselt",
    "brand": "lukoil_express.jpg",
    "address": "St. Truidersteenweg 335, 3500 Hasselt",
    "lat": 50.913715102734,
    "lng": 5.3223609365234,
    "fuel": "95",
    "fuel_name": "Super 95 (E10)",
    "price": 1.646,
    "update_date": "29/06/26",
    "url": "https://carbu.com/belgique/index.php/station/lukoil-express/hasselt/3500/3730",
    "source_city": "Genk",
    "source_cp": "3600",
    "location_id": "BE_li_634"
  },
  {
    "id": "1008",
    "name": "Lukoil Hasselt",
    "brand": "lukoil.gif",
    "address": "Luikersteenweg 119, 3500 Hasselt",
    "lat": 50.922688728326,
    "lng": 5.3402282515206,
    "fuel": "95",
    "fuel_name": "Super 95 (E10)",
    "price": 1.646,
    "update_date": "29/06/26",
    "url": "https://carbu.com/belgique/index.php/station/lukoil/hasselt/3500/1008",
    "source_city": "Genk",
    "source_cp": "3600",
    "location_id": "BE_li_634"
  },
  {
    "id": "2131",
    "name": "Shell Express Fleurus",
    "brand": "109_Shell_Express_Logo.png",
    "address": "Chaussée de Charleroi 33, 6220 Fleurus",
    "lat": 50.487675530661,
    "lng": 4.5590288859139,
    "fuel": "95",
    "fuel_name": "Super 95 (E10)",
    "price": 1.646,
    "update_date": "26/06/26",
    "url": "https://carbu.com/belgique/index.php/station/shell-express/fleurus/6220/2131",
    "source_city": "Gembloux",
    "source_cp": "5030",
    "location_id": "BE_nm_1222"
  },
  {
    "id": "4577",
    "name": "Shell Express Schaarbeek - Lambertmont",
    "brand": "109_Shell_Express_Logo.png",
    "address": "Boulevard Lambermont 18, 1030 Schaerbeek",
    "lat": 50.875212057329,
    "lng": 4.37512705159,
    "fuel": "95",
    "fuel_name": "Super 95 (E10)",
    "price": 1.646,
    "update_date": "26/06/26",
    "url": "https://carbu.com/belgique/index.php/station/shell-express/schaerbeek/1030/4577",
    "source_city": "Vilvoorde",
    "source_cp": "1800",
    "location_id": "BE_bf_272"
  },
  {
    "id": "2016",
    "name": "Shell Express Schaerbeek",
    "brand": "109_Shell_Express_Logo.png",
    "address": "Chaussee De Louvain 568, 1030 Schaerbeek",
    "lat": 50.854436659078,
    "lng": 4.3963915300942,
    "fuel": "95",
    "fuel_name": "Super 95 (E10)",
    "price": 1.646,
    "update_date": "26/06/26",
    "url": "https://carbu.com/belgique/index.php/station/shell-express/schaerbeek/1030/2016",
    "source_city": "Vilvoorde",
    "source_cp": "1800",
    "location_id": "BE_bf_272"
  },
  {
    "id": "4559",
    "name": "Aral Bascharage",
    "brand": "aral.gif",
    "address": "Avenue de Luxembourg 28, 4940 Bascharage",
    "lat": 49.562368762927,
    "lng": 5.9004406122338,
    "fuel": "95",
    "fuel_name": "Super 95 (E5)",
    "price": 1.648,
    "update_date": "29/06/26",
    "url": "https://carbu.com/belgique/index.php/station/aral/bascharage/4940/4559",
    "source_city": "Arlon",
    "source_cp": "6700",
    "location_id": "BE_lu_1745"
  },
  {
    "id": "19440",
    "name": "Aral Bereldange",
    "brand": "aral.gif",
    "address": "route de Luxembourg 107, 7241 Bereldange",
    "lat": 49.651756464911,
    "lng": 6.12792214841,
    "fuel": "95",
    "fuel_name": "Super 95 (E5)",
    "price": 1.648,
    "update_date": "29/06/26",
    "url": "https://carbu.com/belgique/index.php/station/aral/bereldange/7241/19440",
    "source_city": "Arlon",
    "source_cp": "6700",
    "location_id": "BE_lu_1745"
  },
  {
    "id": "20385",
    "name": "Aral Bertrange",
    "brand": "aral.gif",
    "address": "shopping center La Belle Etoile , 8050 Bertrange",
    "lat": 49.622119932464,
    "lng": 6.0488596831894,
    "fuel": "95",
    "fuel_name": "Super 95 (E5)",
    "price": 1.648,
    "update_date": "29/06/26",
    "url": "https://carbu.com/belgique/index.php/station/aral/bertrange/8050/20385",
    "source_city": "Arlon",
    "source_cp": "6700",
    "location_id": "BE_lu_1745"
  },
  {
    "id": "4349",
    "name": "Aral Bour",
    "brand": "aral.gif",
    "address": "Rue de Luxembourg 3, 7412 Bour",
    "lat": 49.701067771145,
    "lng": 6.0182064957008,
    "fuel": "95",
    "fuel_name": "Super 95 (E5)",
    "price": 1.648,
    "update_date": "29/06/26",
    "url": "https://carbu.com/belgique/index.php/station/aral/bour/7412/4349",
    "source_city": "Arlon",
    "source_cp": "6700",
    "location_id": "BE_lu_1745"
  },
  {
    "id": "4554",
    "name": "Aral Differdange",
    "brand": "aral.gif",
    "address": "Route de Bascharage 53, 4513 Differdange",
    "lat": 49.546625356047,
    "lng": 5.8966697020608,
    "fuel": "95",
    "fuel_name": "Super 95 (E5)",
    "price": 1.648,
    "update_date": "29/06/26",
    "url": "https://carbu.com/belgique/index.php/station/aral/differdange/4513/4554",
    "source_city": "Arlon",
    "source_cp": "6700",
    "location_id": "BE_lu_1745"
  },
  {
    "id": "4556",
    "name": "Aral Differdange / Obercon",
    "brand": "aral.gif",
    "address": "Rue de Soleuvre 182, 4670 Differdange",
    "lat": 49.521043422174,
    "lng": 5.9105656025162,
    "fuel": "95",
    "fuel_name": "Super 95 (E5)",
    "price": 1.648,
    "update_date": "29/06/26",
    "url": "https://carbu.com/belgique/index.php/station/aral/differdange/4670/4556",
    "source_city": "Arlon",
    "source_cp": "6700",
    "location_id": "BE_lu_1745"
  },
  {
    "id": "4557",
    "name": "Aral Esch-sur-Alzette",
    "brand": "aral.gif",
    "address": "Route de luxembourg 178, 4222 Esch-sur-alzette",
    "lat": 49.51111203391,
    "lng": 5.9906676283111,
    "fuel": "95",
    "fuel_name": "Super 95 (E5)",
    "price": 1.648,
    "update_date": "29/06/26",
    "url": "https://carbu.com/belgique/index.php/station/aral/esch-sur-alzette/4222/4557",
    "source_city": "Arlon",
    "source_cp": "6700",
    "location_id": "BE_lu_1745"
  },
  {
    "id": "4333",
    "name": "Aral Foetz",
    "brand": "aral.gif",
    "address": "Rue du Brill 6-8, 3898 Foetz",
    "lat": 49.522887120313,
    "lng": 6.0084765522537,
    "fuel": "95",
    "fuel_name": "Super 95 (E5)",
    "price": 1.648,
    "update_date": "29/06/26",
    "url": "https://carbu.com/belgique/index.php/station/aral/foetz/3898/4333",
    "source_city": "Arlon",
    "source_cp": "6700",
    "location_id": "BE_lu_1745"
  },
  {
    "id": "4327",
    "name": "Aral Hiereck",
    "brand": "aral.gif",
    "address": "Bousserstrooss 5, 9144 Hierheck",
    "lat": 49.874676842715,
    "lng": 5.9305938037048,
    "fuel": "95",
    "fuel_name": "Super 95 (E5)",
    "price": 1.648,
    "update_date": "29/06/26",
    "url": "https://carbu.com/belgique/index.php/station/aral/hierheck/9144/4327",
    "source_city": "Bastogne",
    "source_cp": "6600",
    "location_id": "BE_lu_1705"
  },
  {
    "id": "20386",
    "name": "Aral Hollerich",
    "brand": "aral.gif",
    "address": "route d'Esch 140, 1471 Luxembourg",
    "lat": 49.597712988315,
    "lng": 6.1173272701142,
    "fuel": "95",
    "fuel_name": "Super 95 (E5)",
    "price": 1.648,
    "update_date": "29/06/26",
    "url": "https://carbu.com/belgique/index.php/station/aral/luxembourg/1471/20386",
    "source_city": "Arlon",
    "source_cp": "6700",
    "location_id": "BE_lu_1745"
  },
  {
    "id": "4357",
    "name": "Aral Hoscheid Dickt",
    "brand": "aral.gif",
    "address": "Route principale 36, 9835 Hoscheid-dickt",
    "lat": 49.974289349105,
    "lng": 6.0902264242592,
    "fuel": "95",
    "fuel_name": "Super 95 (E5)",
    "price": 1.648,
    "update_date": "29/06/26",
    "url": "https://carbu.com/belgique/index.php/station/aral/hoscheid-dickt/9835/4357",
    "source_city": "Bastogne",
    "source_cp": "6600",
    "location_id": "BE_lu_1705"
  },
  {
    "id": "4350",
    "name": "Aral Lintgen",
    "brand": "aral.gif",
    "address": "Route Principale 37, 7450 Lintgen",
    "lat": 49.718044685206,
    "lng": 6.1258634907379,
    "fuel": "95",
    "fuel_name": "Super 95 (E5)",
    "price": 1.648,
    "update_date": "29/06/26",
    "url": "https://carbu.com/belgique/index.php/station/aral/lintgen/7450/4350",
    "source_city": "Arlon",
    "source_cp": "6700",
    "location_id": "BE_lu_1745"
  },
  {
    "id": "4477",
    "name": "Aral Luxembourg-Merl",
    "brand": "aral.gif",
    "address": "Route de Longwy 225, 1941 Luxembourg",
    "lat": 49.605867402492,
    "lng": 6.1002170710944,
    "fuel": "95",
    "fuel_name": "Super 95 (E5)",
    "price": 1.648,
    "update_date": "29/06/26",
    "url": "https://carbu.com/belgique/index.php/station/aral/luxembourg/1941/4477",
    "source_city": "Arlon",
    "source_cp": "6700",
    "location_id": "BE_lu_1745"
  },
  {
    "id": "4558",
    "name": "Aral Merl",
    "brand": "aral.gif",
    "address": "Route de Longwy 246, 1940 Luxembourg",
    "lat": 49.605923860419,
    "lng": 6.1014719877662,
    "fuel": "95",
    "fuel_name": "Super 95 (E5)",
    "price": 1.648,
    "update_date": "29/06/26",
    "url": "https://carbu.com/belgique/index.php/station/aral/luxembourg/1940/4558",
    "source_city": "Arlon",
    "source_cp": "6700",
    "location_id": "BE_lu_1745"
  },
  {
    "id": "4356",
    "name": "Aral Pommerloch",
    "brand": "aral.gif",
    "address": "Route de Bastogne 8, 9638 Pommerloch",
    "lat": 49.960803651566,
    "lng": 5.8601312268448,
    "fuel": "95",
    "fuel_name": "Super 95 (E5)",
    "price": 1.648,
    "update_date": "29/06/26",
    "url": "https://carbu.com/belgique/index.php/station/aral/pommerloch/9638/4356",
    "source_city": "Bastogne",
    "source_cp": "6600",
    "location_id": "BE_lu_1705"
  },
  {
    "id": "4555",
    "name": "Aral Pétange",
    "brand": "aral.gif",
    "address": "route de Longwy 89, 4750 Petange",
    "lat": 49.555319,
    "lng": 5.870407,
    "fuel": "95",
    "fuel_name": "Super 95 (E5)",
    "price": 1.648,
    "update_date": "29/06/26",
    "url": "https://carbu.com/belgique/index.php/station/aral/petange/4750/4555",
    "source_city": "Arlon",
    "source_cp": "6700",
    "location_id": "BE_lu_1745"
  },
  {
    "id": "4560",
    "name": "Aral Redange-sur-Attert",
    "brand": "aral.gif",
    "address": "Rue d'Ell 4, 8509 Redange-sur-attert",
    "lat": 49.76575275752,
    "lng": 5.8797410638238,
    "fuel": "95",
    "fuel_name": "Super 95 (E5)",
    "price": 1.648,
    "update_date": "29/06/26",
    "url": "https://carbu.com/belgique/index.php/station/aral/redange-sur-attert/8509/4560",
    "source_city": "Arlon",
    "source_cp": "6700",
    "location_id": "BE_lu_1745"
  },
  {
    "id": "4335",
    "name": "Aral Rodange I",
    "brand": "aral.gif",
    "address": "Route de Longwy 515, 4832 Rodange",
    "lat": 49.541589211586,
    "lng": 5.8161577790985,
    "fuel": "95",
    "fuel_name": "Super 95 (E5)",
    "price": 1.648,
    "update_date": "29/06/26",
    "url": "https://carbu.com/belgique/index.php/station/aral/rodange/4832/4335",
    "source_city": "Arlon",
    "source_cp": "6700",
    "location_id": "BE_lu_1745"
  },
  {
    "id": "4358",
    "name": "Aral Rodange II",
    "brand": "aral.gif",
    "address": "Route de Longwy 41, 4830 Rodange",
    "lat": 49.550155586373,
    "lng": 5.8401429705696,
    "fuel": "95",
    "fuel_name": "Super 95 (E5)",
    "price": 1.648,
    "update_date": "29/06/26",
    "url": "https://carbu.com/belgique/index.php/station/aral/rodange/4830/4358",
    "source_city": "Arlon",
    "source_cp": "6700",
    "location_id": "BE_lu_1745"
  },
  {
    "id": "4540",
    "name": "Aral Rodange III",
    "brand": "aral.gif",
    "address": "Route de Longwy 446, 4832 Rodange",
    "lat": 49.541528259291,
    "lng": 5.8152925244369,
    "fuel": "95",
    "fuel_name": "Super 95 (E5)",
    "price": 1.648,
    "update_date": "29/06/26",
    "url": "https://carbu.com/belgique/index.php/station/aral/rodange/4832/4540",
    "source_city": "Arlon",
    "source_cp": "6700",
    "location_id": "BE_lu_1745"
  },
  {
    "id": "4525",
    "name": "Aral Rollingergrund",
    "brand": "aral.gif",
    "address": "rue de Rollingergrund 165, 2440 Luxembourg",
    "lat": 49.617560745443,
    "lng": 6.1113960417335,
    "fuel": "95",
    "fuel_name": "Super 95 (E5)",
    "price": 1.648,
    "update_date": "29/06/26",
    "url": "https://carbu.com/belgique/index.php/station/aral/luxembourg/2440/4525",
    "source_city": "Arlon",
    "source_cp": "6700",
    "location_id": "BE_lu_1745"
  },
  {
    "id": "4332",
    "name": "Aral Schifflange",
    "brand": "aral.gif",
    "address": "Rue Denis Netgen 26, 3858 Schifflange",
    "lat": 49.509500085391,
    "lng": 6.0117467840614,
    "fuel": "95",
    "fuel_name": "Super 95 (E5)",
    "price": 1.648,
    "update_date": "29/06/26",
    "url": "https://carbu.com/belgique/index.php/station/aral/schifflange/3858/4332",
    "source_city": "Arlon",
    "source_cp": "6700",
    "location_id": "BE_lu_1745"
  },
  {
    "id": "4352",
    "name": "Aral Steinfort",
    "brand": "aral.gif",
    "address": "Route d'Arlon 43, 8410 Steinfort",
    "lat": 49.658714458899,
    "lng": 5.9070837865081,
    "fuel": "95",
    "fuel_name": "Super 95 (E5)",
    "price": 1.648,
    "update_date": "29/06/26",
    "url": "https://carbu.com/belgique/index.php/station/aral/steinfort/8410/4352",
    "source_city": "Arlon",
    "source_cp": "6700",
    "location_id": "BE_lu_1745"
  },
  {
    "id": "4355",
    "name": "Aral Wilz",
    "brand": "aral.gif",
    "address": "Rue Michel Thilges 38, 9573 Wiltz",
    "lat": 49.962391716812,
    "lng": 5.9213106515147,
    "fuel": "95",
    "fuel_name": "Super 95 (E5)",
    "price": 1.648,
    "update_date": "29/06/26",
    "url": "https://carbu.com/belgique/index.php/station/aral/wiltz/9573/4355",
    "source_city": "Bastogne",
    "source_cp": "6600",
    "location_id": "BE_lu_1705"
  },
  {
    "id": "4360",
    "name": "BP Capellen",
    "brand": "bp.gif",
    "address": "Aire de Capellen Sud (E25/A6) , 8309 Capellen",
    "lat": 49.635348905872,
    "lng": 5.9699978782959,
    "fuel": "95",
    "fuel_name": "Super 95 (E5)",
    "price": 1.648,
    "update_date": "29/06/26",
    "url": "https://carbu.com/belgique/index.php/station/bp/capellen/8309/4360",
    "source_city": "Arlon",
    "source_cp": "6700",
    "location_id": "BE_lu_1745"
  },
  {
    "id": "4361",
    "name": "BP Koetschette",
    "brand": "bp.gif",
    "address": "Rue des Alliés 11, 8821 Koetschette",
    "lat": 49.83799842497,
    "lng": 5.8388874920654,
    "fuel": "95",
    "fuel_name": "Super 95 (E5)",
    "price": 1.648,
    "update_date": "29/06/26",
    "url": "https://carbu.com/belgique/index.php/station/bp/koetschette/8821/4361",
    "source_city": "Bastogne",
    "source_cp": "6600",
    "location_id": "BE_lu_1705"
  },
  {
    "id": "4530",
    "name": "BP Rombach-Martelange",
    "brand": "bp.gif",
    "address": "Route d'Arlon 19, 8832 Rombach-martelange",
    "lat": 49.8281189,
    "lng": 5.7460499,
    "fuel": "95",
    "fuel_name": "Super 95 (E5)",
    "price": 1.648,
    "update_date": "29/06/26",
    "url": "https://carbu.com/belgique/index.php/station/bp/rombach-martelange/8832/4530",
    "source_city": "Bastogne",
    "source_cp": "6600",
    "location_id": "BE_lu_1705"
  },
  {
    "id": "4369",
    "name": "Esso Allerborn",
    "brand": "esso.gif",
    "address": "Rouyre de Bastogne 4, 9631 Allerborn",
    "lat": 50.036394361437,
    "lng": 5.8868348773156,
    "fuel": "95",
    "fuel_name": "Super 95 (E5)",
    "price": 1.648,
    "update_date": "29/06/26",
    "url": "https://carbu.com/belgique/index.php/station/esso/allerborn/9631/4369",
    "source_city": "Bastogne",
    "source_cp": "6600",
    "location_id": "BE_lu_1705"
  },
  {
    "id": "4375",
    "name": "Esso Bascharage",
    "brand": "esso.gif",
    "address": "Avenue de Luxembourg 3-5, 4940 Bascharage",
    "lat": 49.562274812306,
    "lng": 5.8981296314645,
    "fuel": "95",
    "fuel_name": "Super 95 (E5)",
    "price": 1.648,
    "update_date": "29/06/26",
    "url": "https://carbu.com/belgique/index.php/station/esso/bascharage/4940/4375",
    "source_city": "Arlon",
    "source_cp": "6700",
    "location_id": "BE_lu_1745"
  },
  {
    "id": "4371",
    "name": "Esso Differdange",
    "brand": "esso.gif",
    "address": "Avenue de la Liberté 70, 4601 Differdange",
    "lat": 49.527149272492,
    "lng": 5.8908692000695,
    "fuel": "95",
    "fuel_name": "Super 95 (E5)",
    "price": 1.648,
    "update_date": "29/06/26",
    "url": "https://carbu.com/belgique/index.php/station/esso/differdange/4601/4371",
    "source_city": "Arlon",
    "source_cp": "6700",
    "location_id": "BE_lu_1745"
  },
  {
    "id": "4368",
    "name": "Esso Esch-sur-Alzette",
    "brand": "esso.gif",
    "address": "Boulevard Charles de Gaulle 306, 4083 Esch-sur-alzette",
    "lat": 49.506826,
    "lng": 5.958747,
    "fuel": "95",
    "fuel_name": "Super 95 (E5)",
    "price": 1.648,
    "update_date": "29/06/26",
    "url": "https://carbu.com/belgique/index.php/station/esso/esch-sur-alzette/4083/4368",
    "source_city": "Arlon",
    "source_cp": "6700",
    "location_id": "BE_lu_1745"
  },
  {
    "id": "4364",
    "name": "Esso Gaichel",
    "brand": "esso.gif",
    "address": "Route d' Eischen 1, 8469 Gaichel",
    "lat": 49.693957856429,
    "lng": 5.8692929182232,
    "fuel": "95",
    "fuel_name": "Super 95 (E5)",
    "price": 1.648,
    "update_date": "29/06/26",
    "url": "https://carbu.com/belgique/index.php/station/esso/gaichel/8469/4364",
    "source_city": "Arlon",
    "source_cp": "6700",
    "location_id": "BE_lu_1745"
  },
  {
    "id": "4475",
    "name": "Esso Hollerich",
    "brand": "esso.gif",
    "address": "Route d' Esch 97, 1470 Luxembourg",
    "lat": 49.599624881327,
    "lng": 6.1188465136306,
    "fuel": "95",
    "fuel_name": "Super 95 (E5)",
    "price": 1.648,
    "update_date": "29/06/26",
    "url": "https://carbu.com/belgique/index.php/station/esso/luxembourg/1470/4475",
    "source_city": "Arlon",
    "source_cp": "6700",
    "location_id": "BE_lu_1745"
  },
  {
    "id": "20430",
    "name": "Esso Leudelange",
    "brand": "esso.gif",
    "address": "Rue Jean Fischbach 2, 3372 Leudelange",
    "lat": 49.56668343572,
    "lng": 6.0790934025162,
    "fuel": "95",
    "fuel_name": "Super 95 (E5)",
    "price": 1.648,
    "update_date": "29/06/26",
    "url": "https://carbu.com/belgique/index.php/station/esso/leudelange/3372/20430",
    "source_city": "Arlon",
    "source_cp": "6700",
    "location_id": "BE_lu_1745"
  },
  {
    "id": "4479",
    "name": "Esso Pontpierre",
    "brand": "esso.gif",
    "address": "4390 Pontpierre",
    "lat": 49.544343267954,
    "lng": 6.0401702002998,
    "fuel": "95",
    "fuel_name": "Super 95 (E5)",
    "price": 1.648,
    "update_date": "29/06/26",
    "url": "https://carbu.com/belgique/index.php/station/esso/pontpierre/4390/4479",
    "source_city": "Arlon",
    "source_cp": "6700",
    "location_id": "BE_lu_1745"
  },
  {
    "id": "4478",
    "name": "Esso Pétange",
    "brand": "esso.gif",
    "address": "Rue d' Athus 108, 4711 Petange",
    "lat": 49.55925,
    "lng": 5.863843,
    "fuel": "95",
    "fuel_name": "Super 95 (E5)",
    "price": 1.648,
    "update_date": "29/06/26",
    "url": "https://carbu.com/belgique/index.php/station/esso/petange/4711/4478",
    "source_city": "Arlon",
    "source_cp": "6700",
    "location_id": "BE_lu_1745"
  },
  {
    "id": "4480",
    "name": "Esso Rodange",
    "brand": "esso.gif",
    "address": "Route de Longwy 158, 4831 Rodange",
    "lat": 49.54944479481,
    "lng": 5.8329133042298,
    "fuel": "95",
    "fuel_name": "Super 95 (E5)",
    "price": 1.648,
    "update_date": "29/06/26",
    "url": "https://carbu.com/belgique/index.php/station/esso/rodange/4831/4480",
    "source_city": "Arlon",
    "source_cp": "6700",
    "location_id": "BE_lu_1745"
  },
  {
    "id": "4366",
    "name": "Esso Rodange",
    "brand": "esso.gif",
    "address": "Route de Longwy 485, 4832 Rodange",
    "lat": 49.542437573867,
    "lng": 5.817523439148,
    "fuel": "95",
    "fuel_name": "Super 95 (E5)",
    "price": 1.648,
    "update_date": "29/06/26",
    "url": "https://carbu.com/belgique/index.php/station/esso/rodange/4832/4366",
    "source_city": "Arlon",
    "source_cp": "6700",
    "location_id": "BE_lu_1745"
  },
  {
    "id": "4482",
    "name": "Esso Rombach-Martelange",
    "brand": "esso.gif",
    "address": "Route d' Arlon 20, 8832 Rombach-martelange",
    "lat": 49.827658412345,
    "lng": 5.7462005100952,
    "fuel": "95",
    "fuel_name": "Super 95 (E5)",
    "price": 1.648,
    "update_date": "29/06/26",
    "url": "https://carbu.com/belgique/index.php/station/esso/rombach-martelange/8832/4482",
    "source_city": "Bastogne",
    "source_cp": "6600",
    "location_id": "BE_lu_1705"
  },
  {
    "id": "4370",
    "name": "Esso Rombach-Martelange",
    "brand": "esso.gif",
    "address": "Route d' Arlon 7, 8832 Rombach-martelange",
    "lat": 49.832417401873,
    "lng": 5.7422039514026,
    "fuel": "95",
    "fuel_name": "Super 95 (E5)",
    "price": 1.648,
    "update_date": "29/06/26",
    "url": "https://carbu.com/belgique/index.php/station/esso/rombach-martelange/8832/4370",
    "source_city": "Bastogne",
    "source_cp": "6600",
    "location_id": "BE_lu_1705"
  },
  {
    "id": "4365",
    "name": "Esso Steinfort",
    "brand": "esso.gif",
    "address": "Route de Luxembourg 105, 8440 Steinfort",
    "lat": 49.6594372,
    "lng": 5.9277958,
    "fuel": "95",
    "fuel_name": "Super 95 (E5)",
    "price": 1.648,
    "update_date": "29/06/26",
    "url": "https://carbu.com/belgique/index.php/station/esso/steinfort/8440/4365",
    "source_city": "Arlon",
    "source_cp": "6700",
    "location_id": "BE_lu_1745"
  },
  {
    "id": "4373",
    "name": "Esso Strassen",
    "brand": "esso.gif",
    "address": "Route d' Arlon 12-14, 8008 Strassen",
    "lat": 49.617407812581,
    "lng": 6.093439956089,
    "fuel": "95",
    "fuel_name": "Super 95 (E5)",
    "price": 1.648,
    "update_date": "29/06/26",
    "url": "https://carbu.com/belgique/index.php/station/esso/strassen/8008/4373",
    "source_city": "Arlon",
    "source_cp": "6700",
    "location_id": "BE_lu_1745"
  },
  {
    "id": "4392",
    "name": "Gulf Bascharage",
    "brand": "gulf.gif",
    "address": "Avenue de Luxembourg 226, 4940 Bascharage",
    "lat": 49.57197413644,
    "lng": 5.921345838623,
    "fuel": "95",
    "fuel_name": "Super 95 (E5)",
    "price": 1.648,
    "update_date": "29/06/26",
    "url": "https://carbu.com/belgique/index.php/station/gulf/bascharage/4940/4392",
    "source_city": "Arlon",
    "source_cp": "6700",
    "location_id": "BE_lu_1745"
  },
  {
    "id": "20411",
    "name": "Gulf Differdange",
    "brand": "gulf.gif",
    "address": "Rue Woiwer 307, 4687 Differdange",
    "lat": 49.522563976545,
    "lng": 5.9077517318772,
    "fuel": "95",
    "fuel_name": "Super 95 (E5)",
    "price": 1.648,
    "update_date": "29/06/26",
    "url": "https://carbu.com/belgique/index.php/station/gulf/differdange/4687/20411",
    "source_city": "Arlon",
    "source_cp": "6700",
    "location_id": "BE_lu_1745"
  },
  {
    "id": "20431",
    "name": "Gulf Esch-sur-Alzette",
    "brand": "gulf.gif",
    "address": "Rue de Luxembourg 230, 4222 Esch-sur-alzette",
    "lat": 49.511043100073,
    "lng": 5.9906365747299,
    "fuel": "95",
    "fuel_name": "Super 95 (E5)",
    "price": 1.648,
    "update_date": "29/06/26",
    "url": "https://carbu.com/belgique/index.php/station/gulf/esch-sur-alzette/4222/20431",
    "source_city": "Arlon",
    "source_cp": "6700",
    "location_id": "BE_lu_1745"
  },
  {
    "id": "4395",
    "name": "Gulf Hosingen",
    "brand": "gulf.gif",
    "address": "Zac Happerfeld 1, 9806 Hosingen",
    "lat": 50.006028602792,
    "lng": 6.0839603650513,
    "fuel": "95",
    "fuel_name": "Super 95 (E5)",
    "price": 1.648,
    "update_date": "29/06/26",
    "url": "https://carbu.com/belgique/index.php/station/gulf/hosingen/9806/4395",
    "source_city": "Bastogne",
    "source_cp": "6600",
    "location_id": "BE_lu_1705"
  },
  {
    "id": "4539",
    "name": "Gulf Martelange",
    "brand": "gulf.gif",
    "address": "Route d'Arlon 11, 8832 Rombach-martelange",
    "lat": 49.831676142919,
    "lng": 5.7437093130226,
    "fuel": "95",
    "fuel_name": "Super 95 (E5)",
    "price": 1.648,
    "update_date": "29/06/26",
    "url": "https://carbu.com/belgique/index.php/station/gulf/rombach-martelange/8832/4539",
    "source_city": "Bastogne",
    "source_cp": "6600",
    "location_id": "BE_lu_1705"
  },
  {
    "id": "4650",
    "name": "Gulf Mertzig",
    "brand": "gulf.gif",
    "address": "Zone Industrielle 9, 9166 Mertzig",
    "lat": 49.837718563186,
    "lng": 6.0133183564141,
    "fuel": "95",
    "fuel_name": "Super 95 (E5)",
    "price": 1.648,
    "update_date": "29/06/26",
    "url": "https://carbu.com/belgique/index.php/station/gulf/mertzig/9166/4650",
    "source_city": "Arlon",
    "source_cp": "6700",
    "location_id": "BE_lu_1745"
  },
  {
    "id": "4397",
    "name": "Gulf Truckcenter Marnach",
    "brand": "gulf.gif",
    "address": "Rue de Marbourg 21, 9764 Marnach",
    "lat": 50.053721761669,
    "lng": 6.0702689855194,
    "fuel": "95",
    "fuel_name": "Super 95 (E5)",
    "price": 1.648,
    "update_date": "29/06/26",
    "url": "https://carbu.com/belgique/index.php/station/gulf/marnach/9764/4397",
    "source_city": "Bastogne",
    "source_cp": "6600",
    "location_id": "BE_lu_1705"
  },
  {
    "id": "20440",
    "name": "Gulf Wiltz",
    "brand": "gulf.gif",
    "address": "Rue du X Septembre 21A, 9560 Wiltz",
    "lat": 49.969072223048,
    "lng": 5.9337567859833,
    "fuel": "95",
    "fuel_name": "Super 95 (E5)",
    "price": 1.648,
    "update_date": "29/06/26",
    "url": "https://carbu.com/belgique/index.php/station/gulf/wiltz/9560/20440",
    "source_city": "Bastogne",
    "source_cp": "6600",
    "location_id": "BE_lu_1705"
  },
  {
    "id": "21444",
    "name": "PC-TANK SARL ESSO",
    "brand": "esso.gif",
    "address": "Fuussekaul , 9156 Heiderscheid",
    "lat": 49.879822742282,
    "lng": 5.9916113025856,
    "fuel": "95",
    "fuel_name": "Super 95 (E5)",
    "price": 1.648,
    "update_date": "29/06/26",
    "url": "https://carbu.com/belgique/index.php/station/esso/heiderscheid/9156/21444",
    "source_city": "Bastogne",
    "source_cp": "6600",
    "location_id": "BE_lu_1705"
  },
  {
    "id": "4401",
    "name": "Q8 Belvaux",
    "brand": "q8.gif",
    "address": "Route d' Esch 65, 4450 Belvaux",
    "lat": 49.511145088695,
    "lng": 5.9327832073402,
    "fuel": "95",
    "fuel_name": "Super 95 (E5)",
    "price": 1.648,
    "update_date": "29/06/26",
    "url": "https://carbu.com/belgique/index.php/station/q8/belvaux/4450/4401",
    "source_city": "Arlon",
    "source_cp": "6700",
    "location_id": "BE_lu_1745"
  },
  {
    "id": "4402",
    "name": "Q8 Bereldange",
    "brand": "q8.gif",
    "address": "Route de Luxembourg 91, 7240 Bereldange",
    "lat": 49.653155520463,
    "lng": 6.1277342761268,
    "fuel": "95",
    "fuel_name": "Super 95 (E5)",
    "price": 1.648,
    "update_date": "29/06/26",
    "url": "https://carbu.com/belgique/index.php/station/q8/bereldange/7240/4402",
    "source_city": "Arlon",
    "source_cp": "6700",
    "location_id": "BE_lu_1745"
  },
  {
    "id": "4404",
    "name": "Q8 Bridel",
    "brand": "q8.gif",
    "address": "Rue de Luxembourg 59, 8140 Bridel",
    "lat": 49.656650799495,
    "lng": 6.0832255773155,
    "fuel": "95",
    "fuel_name": "Super 95 (E5)",
    "price": 1.648,
    "update_date": "29/06/26",
    "url": "https://carbu.com/belgique/index.php/station/q8/bridel/8140/4404",
    "source_city": "Arlon",
    "source_cp": "6700",
    "location_id": "BE_lu_1745"
  },
  {
    "id": "4469",
    "name": "Q8 Capellen Nord",
    "brand": "q8.gif",
    "address": "Aire Capellen Nord E25 , 8309 Capellen",
    "lat": 49.6364136,
    "lng": 5.9712904,
    "fuel": "95",
    "fuel_name": "Super 95 (E5)",
    "price": 1.648,
    "update_date": "29/06/26",
    "url": "https://carbu.com/belgique/index.php/station/q8/capellen/8309/4469",
    "source_city": "Arlon",
    "source_cp": "6700",
    "location_id": "BE_lu_1745"
  },
  {
    "id": "4412",
    "name": "Q8 Concorde",
    "brand": "q8.gif",
    "address": "Route de Longwy 80, 8060 Bertrange",
    "lat": 49.601692594473,
    "lng": 6.0624163382759,
    "fuel": "95",
    "fuel_name": "Super 95 (E5)",
    "price": 1.648,
    "update_date": "29/06/26",
    "url": "https://carbu.com/belgique/index.php/station/q8/bertrange/8060/4412",
    "source_city": "Arlon",
    "source_cp": "6700",
    "location_id": "BE_lu_1745"
  },
  {
    "id": "4423",
    "name": "Q8 Eich",
    "brand": "q8.gif",
    "address": "Rue d' Eich 2, 1460 Luxembourg",
    "lat": 49.628595058789,
    "lng": 6.1310995472908,
    "fuel": "95",
    "fuel_name": "Super 95 (E5)",
    "price": 1.648,
    "update_date": "29/06/26",
    "url": "https://carbu.com/belgique/index.php/station/q8/luxembourg/1460/4423",
    "source_city": "Arlon",
    "source_cp": "6700",
    "location_id": "BE_lu_1745"
  },
  {
    "id": "4418",
    "name": "Q8 Esch-Sur-Alzette",
    "brand": "q8.gif",
    "address": "Route de Luxembourg 230, 4222 Esch-sur-alzette",
    "lat": 49.511150206036,
    "lng": 5.9906821722832,
    "fuel": "95",
    "fuel_name": "Super 95 (E5)",
    "price": 1.648,
    "update_date": "29/06/26",
    "url": "https://carbu.com/belgique/index.php/station/q8/esch-sur-alzette/4222/4418",
    "source_city": "Arlon",
    "source_cp": "6700",
    "location_id": "BE_lu_1745"
  },
  {
    "id": "20410",
    "name": "Q8 Leudelange",
    "brand": "q8.gif",
    "address": "Rue Léon Laval 1, 3372 Leudelange",
    "lat": 49.567102438786,
    "lng": 6.0798741723527,
    "fuel": "95",
    "fuel_name": "Super 95 (E5)",
    "price": 1.648,
    "update_date": "29/06/26",
    "url": "https://carbu.com/belgique/index.php/station/q8/leudelange/3372/20410",
    "source_city": "Arlon",
    "source_cp": "6700",
    "location_id": "BE_lu_1745"
  },
  {
    "id": "4427",
    "name": "Q8 Martelange I",
    "brand": "q8.gif",
    "address": "Route d' Arlon 13, 8823 Martelange-haut",
    "lat": 49.830084141212,
    "lng": 5.744678258583,
    "fuel": "95",
    "fuel_name": "Super 95 (E5)",
    "price": 1.648,
    "update_date": "29/06/26",
    "url": "https://carbu.com/belgique/index.php/station/q8/martelange-haut/8823/4427",
    "source_city": "Bastogne",
    "source_cp": "6600",
    "location_id": "BE_lu_1705"
  },
  {
    "id": "20331",
    "name": "Q8 Martelange II",
    "brand": "q8.gif",
    "address": "Route d'Arlon 6, 8832 Rombach-martelange",
    "lat": 49.832649063859,
    "lng": 5.7416865479588,
    "fuel": "95",
    "fuel_name": "Super 95 (E5)",
    "price": 1.648,
    "update_date": "29/06/26",
    "url": "https://carbu.com/belgique/index.php/station/q8/rombach-martelange/8832/20331",
    "source_city": "Bastogne",
    "source_cp": "6600",
    "location_id": "BE_lu_1705"
  },
  {
    "id": "4406",
    "name": "Q8 Merl",
    "brand": "q8.gif",
    "address": "Route de Longwy 258, 1940 Luxembourg",
    "lat": 49.605793071989,
    "lng": 6.1003728306885,
    "fuel": "95",
    "fuel_name": "Super 95 (E5)",
    "price": 1.648,
    "update_date": "29/06/26",
    "url": "https://carbu.com/belgique/index.php/station/q8/luxembourg/1940/4406",
    "source_city": "Arlon",
    "source_cp": "6700",
    "location_id": "BE_lu_1745"
  },
  {
    "id": "4407",
    "name": "Q8 Pommerloch",
    "brand": "q8.gif",
    "address": "Route de Bastogne 17, 9638 Pommerloch",
    "lat": 49.963395276714,
    "lng": 5.8593104708863,
    "fuel": "95",
    "fuel_name": "Super 95 (E5)",
    "price": 1.648,
    "update_date": "29/06/26",
    "url": "https://carbu.com/belgique/index.php/station/q8/pommerloch/9638/4407",
    "source_city": "Bastogne",
    "source_cp": "6600",
    "location_id": "BE_lu_1705"
  },
  {
    "id": "4432",
    "name": "Q8 Pommerloch I",
    "brand": "q8.gif",
    "address": "Route De Bastogne 26, 9638 Pommerloch",
    "lat": 49.962268684152,
    "lng": 5.858817467984,
    "fuel": "95",
    "fuel_name": "Super 95 (E5)",
    "price": 1.648,
    "update_date": "29/06/26",
    "url": "https://carbu.com/belgique/index.php/station/q8/pommerloch/9638/4432",
    "source_city": "Bastogne",
    "source_cp": "6600",
    "location_id": "BE_lu_1705"
  },
  {
    "id": "4435",
    "name": "Q8 Rodange II",
    "brand": "q8.gif",
    "address": "Route de Longwy 432, 4832 Rodange",
    "lat": 49.542535173705,
    "lng": 5.816314524784,
    "fuel": "95",
    "fuel_name": "Super 95 (E5)",
    "price": 1.648,
    "update_date": "29/06/26",
    "url": "https://carbu.com/belgique/index.php/station/q8/rodange/4832/4435",
    "source_city": "Arlon",
    "source_cp": "6700",
    "location_id": "BE_lu_1745"
  },
  {
    "id": "4409",
    "name": "Q8 Saeul",
    "brand": "q8.gif",
    "address": "Rue de Mersch 2, 7470 Saeul",
    "lat": 49.726297,
    "lng": 5.986955806221,
    "fuel": "95",
    "fuel_name": "Super 95 (E5)",
    "price": 1.648,
    "update_date": "29/06/26",
    "url": "https://carbu.com/belgique/index.php/station/q8/saeul/7470/4409",
    "source_city": "Arlon",
    "source_cp": "6700",
    "location_id": "BE_lu_1745"
  },
  {
    "id": "4410",
    "name": "Q8 Schouweiler",
    "brand": "q8.gif",
    "address": "Route De Longwy 115, 4994 Schouweiler",
    "lat": 49.581667491579,
    "lng": 5.9601855570778,
    "fuel": "95",
    "fuel_name": "Super 95 (E5)",
    "price": 1.648,
    "update_date": "29/06/26",
    "url": "https://carbu.com/belgique/index.php/station/q8/schouweiler/4994/4410",
    "source_city": "Arlon",
    "source_cp": "6700",
    "location_id": "BE_lu_1745"
  },
  {
    "id": "4411",
    "name": "Q8 Steinfort",
    "brand": "q8.gif",
    "address": "Route d' Arlon 46, 8410 Steinfort",
    "lat": 49.658935122756,
    "lng": 5.9072274576721,
    "fuel": "95",
    "fuel_name": "Super 95 (E5)",
    "price": 1.648,
    "update_date": "29/06/26",
    "url": "https://carbu.com/belgique/index.php/station/q8/steinfort/8410/4411",
    "source_city": "Arlon",
    "source_cp": "6700",
    "location_id": "BE_lu_1745"
  },
  {
    "id": "4399",
    "name": "Q8 Strassen",
    "brand": "q8.gif",
    "address": "Route d'Arlon 44, 8008 Strassen",
    "lat": 49.618060722292,
    "lng": 6.088507338623,
    "fuel": "95",
    "fuel_name": "Super 95 (E5)",
    "price": 1.648,
    "update_date": "29/06/26",
    "url": "https://carbu.com/belgique/index.php/station/q8/strassen/8008/4399",
    "source_city": "Arlon",
    "source_cp": "6700",
    "location_id": "BE_lu_1745"
  },
  {
    "id": "19512",
    "name": "Q8 Troisvierges",
    "brand": "q8.gif",
    "address": "Rue de Wilwerdange 31B, 9910 Troisvierges",
    "lat": 50.123388708379,
    "lng": 6.0016855233482,
    "fuel": "95",
    "fuel_name": "Super 95 (E5)",
    "price": 1.648,
    "update_date": "29/06/26",
    "url": "https://carbu.com/belgique/index.php/station/q8/troisvierges/9910/19512",
    "source_city": "Bastogne",
    "source_cp": "6600",
    "location_id": "BE_lu_1705"
  },
  {
    "id": "4442",
    "name": "Q8 Wincrange",
    "brand": "q8.gif",
    "address": "Wincrange 60, 9780 Wincrange",
    "lat": 50.053821161136,
    "lng": 5.9147748392868,
    "fuel": "95",
    "fuel_name": "Super 95 (E5)",
    "price": 1.648,
    "update_date": "29/06/26",
    "url": "https://carbu.com/belgique/index.php/station/q8/wincrange/9780/4442",
    "source_city": "Bastogne",
    "source_cp": "6600",
    "location_id": "BE_lu_1705"
  },
  {
    "id": "4553",
    "name": "Shell Beggen",
    "brand": "shell.gif",
    "address": "Rue de Beggen 289, 1221 Luxembourg",
    "lat": 49.648175137585,
    "lng": 6.1275592367706,
    "fuel": "95",
    "fuel_name": "Super 95 (E5)",
    "price": 1.648,
    "update_date": "29/06/26",
    "url": "https://carbu.com/belgique/index.php/station/shell/luxembourg/1221/4553",
    "source_city": "Arlon",
    "source_cp": "6700",
    "location_id": "BE_lu_1745"
  },
  {
    "id": "20853",
    "name": "Shell Bridel",
    "brand": "shell.gif",
    "address": "Route de Luxembourg 80, 8140 Bridel",
    "lat": 49.655602036668,
    "lng": 6.0830910932541,
    "fuel": "95",
    "fuel_name": "Super 95 (E5)",
    "price": 1.648,
    "update_date": "29/06/26",
    "url": "https://carbu.com/belgique/index.php/station/shell/bridel/8140/20853",
    "source_city": "Arlon",
    "source_cp": "6700",
    "location_id": "BE_lu_1745"
  },
  {
    "id": "4466",
    "name": "Shell Differdange",
    "brand": "shell.gif",
    "address": "Avenue de la Liberté 130, 4602 Differdange",
    "lat": 49.530883722441,
    "lng": 5.8916895497028,
    "fuel": "95",
    "fuel_name": "Super 95 (E5)",
    "price": 1.648,
    "update_date": "29/06/26",
    "url": "https://carbu.com/belgique/index.php/station/shell/differdange/4602/4466",
    "source_city": "Arlon",
    "source_cp": "6700",
    "location_id": "BE_lu_1745"
  },
  {
    "id": "4444",
    "name": "Shell Differdange",
    "brand": "shell.gif",
    "address": "Rue de Soleuvre 181, 4670 Differdange",
    "lat": 49.521268590039,
    "lng": 5.910477682209,
    "fuel": "95",
    "fuel_name": "Super 95 (E5)",
    "price": 1.648,
    "update_date": "29/06/26",
    "url": "https://carbu.com/belgique/index.php/station/shell/differdange/4670/4444",
    "source_city": "Arlon",
    "source_cp": "6700",
    "location_id": "BE_lu_1745"
  },
  {
    "id": "4447",
    "name": "Shell Esch-sur-Alzette",
    "brand": "shell.gif",
    "address": "Rue de Luxembourg 140, 4221 Esch-sur-alzette",
    "lat": 49.506190465832,
    "lng": 5.9889083571472,
    "fuel": "95",
    "fuel_name": "Super 95 (E5)",
    "price": 1.648,
    "update_date": "29/06/26",
    "url": "https://carbu.com/belgique/index.php/station/shell/esch-sur-alzette/4221/4447",
    "source_city": "Arlon",
    "source_cp": "6700",
    "location_id": "BE_lu_1745"
  },
  {
    "id": "19111",
    "name": "Shell Hachiville",
    "brand": "shell.gif",
    "address": "Hachiville 5, 9956 Hachiville",
    "lat": 50.104813821016,
    "lng": 5.9212415558197,
    "fuel": "95",
    "fuel_name": "Super 95 (E5)",
    "price": 1.648,
    "update_date": "29/06/26",
    "url": "https://carbu.com/belgique/index.php/station/shell/hachiville/9956/19111",
    "source_city": "Bastogne",
    "source_cp": "6600",
    "location_id": "BE_lu_1705"
  },
  {
    "id": "4450",
    "name": "Shell Helfenterbruck",
    "brand": "shell.gif",
    "address": "Route de Longwy 2, 8080 Bertrange",
    "lat": 49.604069436379,
    "lng": 6.0774055239773,
    "fuel": "95",
    "fuel_name": "Super 95 (E5)",
    "price": 1.648,
    "update_date": "29/06/26",
    "url": "https://carbu.com/belgique/index.php/station/shell/bertrange/8080/4450",
    "source_city": "Arlon",
    "source_cp": "6700",
    "location_id": "BE_lu_1745"
  },
  {
    "id": "4548",
    "name": "Shell Holzthum",
    "brand": "shell.gif",
    "address": "Route de Diekirch 6, 9834 Holzthum",
    "lat": 49.985718026232,
    "lng": 6.0881094441108,
    "fuel": "95",
    "fuel_name": "Super 95 (E5)",
    "price": 1.648,
    "update_date": "29/06/26",
    "url": "https://carbu.com/belgique/index.php/station/shell/holzthum/9834/4548",
    "source_city": "Bastogne",
    "source_cp": "6600",
    "location_id": "BE_lu_1705"
  },
  {
    "id": "4453",
    "name": "Shell Merl",
    "brand": "shell.gif",
    "address": "Route de Longwy 227, 1941 Luxembourg",
    "lat": 49.605591752833,
    "lng": 6.1008553313522,
    "fuel": "95",
    "fuel_name": "Super 95 (E5)",
    "price": 1.648,
    "update_date": "29/06/26",
    "url": "https://carbu.com/belgique/index.php/station/shell/luxembourg/1941/4453",
    "source_city": "Arlon",
    "source_cp": "6700",
    "location_id": "BE_lu_1745"
  },
  {
    "id": "4467",
    "name": "Shell Oberpallen",
    "brand": "shell.gif",
    "address": "Arelerstrooss 39, 8552 Oberpallen",
    "lat": 49.725305652544,
    "lng": 5.8403633533729,
    "fuel": "95",
    "fuel_name": "Super 95 (E5)",
    "price": 1.648,
    "update_date": "29/06/26",
    "url": "https://carbu.com/belgique/index.php/station/shell/oberpallen/8552/4467",
    "source_city": "Arlon",
    "source_cp": "6700",
    "location_id": "BE_lu_1745"
  },
  {
    "id": "4544",
    "name": "Shell Pommerloch",
    "brand": "shell.gif",
    "address": "Bastnicherstrooss 10, 9638 Pommerloch",
    "lat": 49.960791882895,
    "lng": 5.8601401828728,
    "fuel": "95",
    "fuel_name": "Super 95 (E5)",
    "price": 1.648,
    "update_date": "29/06/26",
    "url": "https://carbu.com/belgique/index.php/station/shell/pommerloch/9638/4544",
    "source_city": "Bastogne",
    "source_cp": "6600",
    "location_id": "BE_lu_1705"
  },
  {
    "id": "4456",
    "name": "Shell Pétange",
    "brand": "shell.gif",
    "address": "Route de Longwy 13, 4750 Petange",
    "lat": 49.555979108732,
    "lng": 5.8745800518341,
    "fuel": "95",
    "fuel_name": "Super 95 (E5)",
    "price": 1.648,
    "update_date": "29/06/26",
    "url": "https://carbu.com/belgique/index.php/station/shell/petange/4750/4456",
    "source_city": "Arlon",
    "source_cp": "6700",
    "location_id": "BE_lu_1745"
  },
  {
    "id": "4457",
    "name": "Shell Rombach-Martelange",
    "brand": "shell.gif",
    "address": "Route d'Arlon 17, 8832 Rombach-martelange",
    "lat": 49.828561818365,
    "lng": 5.745739320446,
    "fuel": "95",
    "fuel_name": "Super 95 (E5)",
    "price": 1.648,
    "update_date": "29/06/26",
    "url": "https://carbu.com/belgique/index.php/station/shell/rombach-martelange/8832/4457",
    "source_city": "Bastogne",
    "source_cp": "6600",
    "location_id": "BE_lu_1705"
  },
  {
    "id": "4545",
    "name": "Shell Rombach-Martelange",
    "brand": "shell.gif",
    "address": "Route d'Arlon 12, 8832 Rombach-martelange",
    "lat": 49.831326031046,
    "lng": 5.7441191493377,
    "fuel": "95",
    "fuel_name": "Super 95 (E5)",
    "price": 1.648,
    "update_date": "29/06/26",
    "url": "https://carbu.com/belgique/index.php/station/shell/rombach-martelange/8832/4545",
    "source_city": "Bastogne",
    "source_cp": "6600",
    "location_id": "BE_lu_1705"
  },
  {
    "id": "4537",
    "name": "Shell Sanem",
    "brand": "shell.gif",
    "address": "Route d'Esch 91, 4985 Sanem",
    "lat": 49.543177260579,
    "lng": 5.9327541918183,
    "fuel": "95",
    "fuel_name": "Super 95 (E5)",
    "price": 1.648,
    "update_date": "29/06/26",
    "url": "https://carbu.com/belgique/index.php/station/shell/sanem/4985/4537",
    "source_city": "Arlon",
    "source_cp": "6700",
    "location_id": "BE_lu_1745"
  },
  {
    "id": "4462",
    "name": "Shell Steinfort",
    "brand": "shell.gif",
    "address": "Route d' Arlon 58, 8410 Steinfort",
    "lat": 49.658947629373,
    "lng": 5.9047762933235,
    "fuel": "95",
    "fuel_name": "Super 95 (E5)",
    "price": 1.648,
    "update_date": "29/06/26",
    "url": "https://carbu.com/belgique/index.php/station/shell/steinfort/8410/4462",
    "source_city": "Arlon",
    "source_cp": "6700",
    "location_id": "BE_lu_1745"
  },
  {
    "id": "4600",
    "name": "Station Foetz",
    "brand": "154_LeclercLogo.png",
    "address": "Rue du Brill 11, 3898 Foetz",
    "lat": 49.522122788741,
    "lng": 6.0074466554031,
    "fuel": "95",
    "fuel_name": "Super 95 (E5)",
    "price": 1.648,
    "update_date": "29/06/26",
    "url": "https://carbu.com/belgique/index.php/station/eleclerc/foetz/3898/4600",
    "source_city": "Arlon",
    "source_cp": "6700",
    "location_id": "BE_lu_1745"
  },
  {
    "id": "4470",
    "name": "Texaco Berschbach-Mersch",
    "brand": "texaco.gif",
    "address": "Rue de Luxembourg 4, 7540 Berschbach",
    "lat": 49.74756090062,
    "lng": 6.1109272270184,
    "fuel": "95",
    "fuel_name": "Super 95 (E5)",
    "price": 1.648,
    "update_date": "29/06/26",
    "url": "https://carbu.com/belgique/index.php/station/texaco/berschbach/7540/4470",
    "source_city": "Arlon",
    "source_cp": "6700",
    "location_id": "BE_lu_1745"
  },
  {
    "id": "20471",
    "name": "Texaco Rodange II",
    "brand": "texaco.gif",
    "address": "Rue du Longwy 455, 4832 Rodange",
    "lat": 49.5437017,
    "lng": 5.8199109,
    "fuel": "95",
    "fuel_name": "Super 95 (E5)",
    "price": 1.648,
    "update_date": "29/06/26",
    "url": "https://carbu.com/belgique/index.php/station/texaco/rodange/4832/20471",
    "source_city": "Arlon",
    "source_cp": "6700",
    "location_id": "BE_lu_1745"
  },
  {
    "id": "4485",
    "name": "Total Bascharage",
    "brand": "85_Logo_TotalEnergies.png",
    "address": "Avenue de Luxembourg 2, 4940 Bascharage",
    "lat": 49.561643123688,
    "lng": 5.8973864588608,
    "fuel": "95",
    "fuel_name": "Super 95 (E5)",
    "price": 1.648,
    "update_date": "29/06/26",
    "url": "https://carbu.com/belgique/index.php/station/totalenergies/bascharage/4940/4485",
    "source_city": "Arlon",
    "source_cp": "6700",
    "location_id": "BE_lu_1745"
  },
  {
    "id": "4489",
    "name": "Total Doncols",
    "brand": "85_Logo_TotalEnergies.png",
    "address": "Rue Bohey 25, 9647 Doncols",
    "lat": 49.975503247576,
    "lng": 5.8438467979431,
    "fuel": "95",
    "fuel_name": "Super 95 (E5)",
    "price": 1.648,
    "update_date": "29/06/26",
    "url": "https://carbu.com/belgique/index.php/station/totalenergies/doncols/9647/4489",
    "source_city": "Bastogne",
    "source_cp": "6600",
    "location_id": "BE_lu_1705"
  },
  {
    "id": "4491",
    "name": "Total Esch-sur-Alzette",
    "brand": "85_Logo_TotalEnergies.png",
    "address": "Route de Belvaux 66, 4025 Esch-sur-alzette",
    "lat": 49.502022576537,
    "lng": 5.973660656414,
    "fuel": "95",
    "fuel_name": "Super 95 (E5)",
    "price": 1.648,
    "update_date": "29/06/26",
    "url": "https://carbu.com/belgique/index.php/station/totalenergies/esch-sur-alzette/4025/4491",
    "source_city": "Arlon",
    "source_cp": "6700",
    "location_id": "BE_lu_1745"
  },
  {
    "id": "20483",
    "name": "Total Lorentzweiler",
    "brand": "85_Logo_TotalEnergies.png",
    "address": "Route de Luxembourg 33, 7372 Lorentzweiler",
    "lat": 49.707080648043,
    "lng": 6.1366831981476,
    "fuel": "95",
    "fuel_name": "Super 95 (E5)",
    "price": 1.648,
    "update_date": "29/06/26",
    "url": "https://carbu.com/belgique/index.php/station/totalenergies/lorentzweiler/7372/20483",
    "source_city": "Arlon",
    "source_cp": "6700",
    "location_id": "BE_lu_1745"
  },
  {
    "id": "4498",
    "name": "Total Marnach",
    "brand": "85_Logo_TotalEnergies.png",
    "address": "Marbuergerstrooss 9, 9764 Marnach",
    "lat": 50.052452508366,
    "lng": 6.0716348961869,
    "fuel": "95",
    "fuel_name": "Super 95 (E5)",
    "price": 1.648,
    "update_date": "29/06/26",
    "url": "https://carbu.com/belgique/index.php/station/totalenergies/marnach/9764/4498",
    "source_city": "Bastogne",
    "source_cp": "6600",
    "location_id": "BE_lu_1705"
  },
  {
    "id": "4499",
    "name": "Total Martelange",
    "brand": "85_Logo_TotalEnergies.png",
    "address": "Route d' Arlon 10, 8832 Rombach-martelange",
    "lat": 49.832034050246,
    "lng": 5.7431588850723,
    "fuel": "95",
    "fuel_name": "Super 95 (E5)",
    "price": 1.648,
    "update_date": "29/06/26",
    "url": "https://carbu.com/belgique/index.php/station/totalenergies/rombach-martelange/8832/4499",
    "source_city": "Bastogne",
    "source_cp": "6600",
    "location_id": "BE_lu_1705"
  },
  {
    "id": "4500",
    "name": "Total Martelange 24",
    "brand": "85_Logo_TotalEnergies.png",
    "address": "Route d' Arlon 24, 8823 Martelange-haut",
    "lat": 49.833506348682,
    "lng": 5.7398973189102,
    "fuel": "95",
    "fuel_name": "Super 95 (E5)",
    "price": 1.648,
    "update_date": "29/06/26",
    "url": "https://carbu.com/belgique/index.php/station/totalenergies/martelange-haut/8823/4500",
    "source_city": "Bastogne",
    "source_cp": "6600",
    "location_id": "BE_lu_1705"
  },
  {
    "id": "20482",
    "name": "Total Mersch",
    "brand": "85_Logo_TotalEnergies.png",
    "address": "Route de Colmar-Berg , 7525 Mersch",
    "lat": 49.756561666707,
    "lng": 6.0989294565918,
    "fuel": "95",
    "fuel_name": "Super 95 (E5)",
    "price": 1.648,
    "update_date": "29/06/26",
    "url": "https://carbu.com/belgique/index.php/station/totalenergies/mersch/7525/20482",
    "source_city": "Arlon",
    "source_cp": "6700",
    "location_id": "BE_lu_1745"
  },
  {
    "id": "4504",
    "name": "Total Oberpallen",
    "brand": "85_Logo_TotalEnergies.png",
    "address": "Rue d' Arlon 30, 8552 Oberpallen",
    "lat": 49.725896841828,
    "lng": 5.8400900843087,
    "fuel": "95",
    "fuel_name": "Super 95 (E5)",
    "price": 1.648,
    "update_date": "29/06/26",
    "url": "https://carbu.com/belgique/index.php/station/totalenergies/oberpallen/8552/4504",
    "source_city": "Arlon",
    "source_cp": "6700",
    "location_id": "BE_lu_1745"
  },
  {
    "id": "4503",
    "name": "Total Oberpallen",
    "brand": "85_Logo_TotalEnergies.png",
    "address": "Rue d' Arlon 2, 8552 Oberpallen",
    "lat": 49.729024697744,
    "lng": 5.8418388845863,
    "fuel": "95",
    "fuel_name": "Super 95 (E5)",
    "price": 1.648,
    "update_date": "29/06/26",
    "url": "https://carbu.com/belgique/index.php/station/totalenergies/oberpallen/8552/4503",
    "source_city": "Arlon",
    "source_cp": "6700",
    "location_id": "BE_lu_1745"
  },
  {
    "id": "4509",
    "name": "Total Rodange",
    "brand": "85_Logo_TotalEnergies.png",
    "address": "Route de Longwy 412, 4831 Rodange",
    "lat": 49.544374019835,
    "lng": 5.8207696295852,
    "fuel": "95",
    "fuel_name": "Super 95 (E5)",
    "price": 1.648,
    "update_date": "29/06/26",
    "url": "https://carbu.com/belgique/index.php/station/totalenergies/rodange/4831/4509",
    "source_city": "Arlon",
    "source_cp": "6700",
    "location_id": "BE_lu_1745"
  },
  {
    "id": "4508",
    "name": "Total Rodange",
    "brand": "85_Logo_TotalEnergies.png",
    "address": "Route de Longwy 369, 4831 Rodange",
    "lat": 49.544125622677,
    "lng": 5.8210038296547,
    "fuel": "95",
    "fuel_name": "Super 95 (E5)",
    "price": 1.648,
    "update_date": "29/06/26",
    "url": "https://carbu.com/belgique/index.php/station/totalenergies/rodange/4831/4508",
    "source_city": "Arlon",
    "source_cp": "6700",
    "location_id": "BE_lu_1745"
  },
  {
    "id": "4513",
    "name": "Total Strassen",
    "brand": "85_Logo_TotalEnergies.png",
    "address": "Route d' Arlon 4, 8008 Strassen",
    "lat": 49.617107760258,
    "lng": 6.0953277324714,
    "fuel": "95",
    "fuel_name": "Super 95 (E5)",
    "price": 1.648,
    "update_date": "29/06/26",
    "url": "https://carbu.com/belgique/index.php/station/totalenergies/strassen/8008/4513",
    "source_city": "Arlon",
    "source_cp": "6700",
    "location_id": "BE_lu_1745"
  },
  {
    "id": "20484",
    "name": "Total Wincrange",
    "brand": "85_Logo_TotalEnergies.png",
    "address": "Maison 52, 9780 Wincrange",
    "lat": 50.051127980413,
    "lng": 5.9090627720841,
    "fuel": "95",
    "fuel_name": "Super 95 (E5)",
    "price": 1.648,
    "update_date": "29/06/26",
    "url": "https://carbu.com/belgique/index.php/station/totalenergies/wincrange/9780/20484",
    "source_city": "Bastogne",
    "source_cp": "6600",
    "location_id": "BE_lu_1705"
  },
  {
    "id": "4517",
    "name": "Total Windhof",
    "brand": "85_Logo_TotalEnergies.png",
    "address": "Carrefour du Windhof , 8399 Windhof",
    "lat": 49.646796181931,
    "lng": 5.9544217280029,
    "fuel": "95",
    "fuel_name": "Super 95 (E5)",
    "price": 1.648,
    "update_date": "29/06/26",
    "url": "https://carbu.com/belgique/index.php/station/totalenergies/windhof/8399/4517",
    "source_city": "Arlon",
    "source_cp": "6700",
    "location_id": "BE_lu_1745"
  },
  {
    "id": "3213",
    "name": "Baillieux Hoeselt",
    "brand": "avia.gif",
    "address": "Industrielaan 23, 3730 Hoeselt",
    "lat": 50.858317548044,
    "lng": 5.4875323705002,
    "fuel": "95",
    "fuel_name": "Super 95 (E10)",
    "price": 1.649,
    "update_date": "26/06/26",
    "url": "https://carbu.com/belgique/index.php/station/avia/hoeselt/3730/3213",
    "source_city": "Tongeren",
    "source_cp": "3700",
    "location_id": "BE_li_686"
  },
  {
    "id": "19805",
    "name": "DATS 24 Opwijk",
    "brand": "dats24.gif",
    "address": "Steenweg op Merchtem 137, 1745 Opwijk",
    "lat": 50.961533022979,
    "lng": 4.2028744937896,
    "fuel": "95",
    "fuel_name": "Super 95 (E10)",
    "price": 1.649,
    "update_date": "29/06/26",
    "url": "https://carbu.com/belgique/index.php/station/dats24/opwijk/1745/19805",
    "source_city": "Aalst",
    "source_cp": "9300",
    "location_id": "BE_foi_2633"
  },
  {
    "id": "2612",
    "name": "GULF Kuringen",
    "brand": "gulf.gif",
    "address": "Kuringersteenweg 351, 3511 Kuringen",
    "lat": 50.9396114,
    "lng": 5.3038757,
    "fuel": "95",
    "fuel_name": "Super 95 (E10)",
    "price": 1.649,
    "update_date": "28/06/26",
    "url": "https://carbu.com/belgique/index.php/station/gulf/kuringen/3511/2612",
    "source_city": "Beringen",
    "source_cp": "3580",
    "location_id": "BE_li_629"
  },
  {
    "id": "2978",
    "name": "Gabriëls Vichte",
    "brand": "gabriels.gif",
    "address": "Peter Benoitstraat 3, 8570 Vichte",
    "lat": 50.836503958158,
    "lng": 3.4048351059433,
    "fuel": "95",
    "fuel_name": "Super 95 (E10)",
    "price": 1.649,
    "update_date": "29/06/26",
    "url": "https://carbu.com/belgique/index.php/station/gabriels/vichte/8570/2978",
    "source_city": "Waregem",
    "source_cp": "8790",
    "location_id": "BE_foc_2484"
  },
  {
    "id": "1017",
    "name": "Maes Opwijk-Mazenzele",
    "brand": "46_MAES LOGO rgb.jpg",
    "address": "Steenweg 20, 1745 Opwijk",
    "lat": 50.9405881,
    "lng": 4.1724241,
    "fuel": "95",
    "fuel_name": "Super 95 (E10)",
    "price": 1.649,
    "update_date": "29/06/26",
    "url": "https://carbu.com/belgique/index.php/station/maes/opwijk/1745/1017",
    "source_city": "Aalst",
    "source_cp": "9300",
    "location_id": "BE_foi_2633"
  },
  {
    "id": "736",
    "name": "Maes Zarren",
    "brand": "46_MAES LOGO rgb.jpg",
    "address": "Staatsbaan 215, 8610 Zarren",
    "lat": 51.019229462553,
    "lng": 2.9685145975533,
    "fuel": "95",
    "fuel_name": "Super 95 (E10)",
    "price": 1.649,
    "update_date": "29/06/26",
    "url": "https://carbu.com/belgique/index.php/station/maes/zarren/8610/736",
    "source_city": "Roeselare",
    "source_cp": "8800",
    "location_id": "BE_foc_2490"
  },
  {
    "id": "3267",
    "name": "Opwijk Maes",
    "brand": "46_MAES LOGO rgb.jpg",
    "address": "Steenweg op Aalst 103, 1745 Opwijk",
    "lat": 50.965024208386,
    "lng": 4.1605055681229,
    "fuel": "95",
    "fuel_name": "Super 95 (E10)",
    "price": 1.649,
    "update_date": "29/06/26",
    "url": "https://carbu.com/belgique/index.php/station/maes/opwijk/1745/3267",
    "source_city": "Aalst",
    "source_cp": "9300",
    "location_id": "BE_foi_2633"
  },
  {
    "id": "20888",
    "name": "Opwijk Maes",
    "brand": "46_MAES LOGO rgb.jpg",
    "address": "Steenweg op Dendermonde 26, 1745 Opwijk",
    "lat": 50.9597592,
    "lng": 4.1574176,
    "fuel": "95",
    "fuel_name": "Super 95 (E10)",
    "price": 1.649,
    "update_date": "29/06/26",
    "url": "https://carbu.com/belgique/index.php/station/maes/opwijk/1745/20888",
    "source_city": "Aalst",
    "source_cp": "9300",
    "location_id": "BE_foi_2633"
  },
  {
    "id": "2554",
    "name": "PMO Automatic Ingooigem",
    "brand": "66_D2404-37534 PMO Logo2.jpg",
    "address": "Ingooigemplaats 68, 8570 Ingooigem",
    "lat": 50.819558697469,
    "lng": 3.4278170980781,
    "fuel": "95",
    "fuel_name": "Super 95 (E10)",
    "price": 1.649,
    "update_date": "29/06/26",
    "url": "https://carbu.com/belgique/index.php/station/pmo/ingooigem/8570/2554",
    "source_city": "Waregem",
    "source_cp": "8790",
    "location_id": "BE_foc_2484"
  },
  {
    "id": "1070",
    "name": "Tourneur Assesse",
    "brand": "",
    "address": "Rue Melville Wilson 3, 5330 Assesse",
    "lat": 50.368380548786,
    "lng": 5.0419115540504,
    "fuel": "95",
    "fuel_name": "Super 95 (E10)",
    "price": 1.649,
    "update_date": "29/06/26",
    "url": "https://carbu.com/belgique/index.php/station/tourneur/assesse/5330/1070",
    "source_city": "Andenne",
    "source_cp": "5300",
    "location_id": "BE_nm_1284"
  },
  {
    "id": "21946",
    "name": "STATIONRS AGIMONT GIVET Frontière",
    "brand": "",
    "address": "rue de Philippeville 210, 5544 Agimont",
    "lat": 50.1489685,
    "lng": 4.7965232,
    "fuel": "95",
    "fuel_name": "Super 95 (E10)",
    "price": 1.65,
    "update_date": "26/06/26",
    "url": "https://carbu.com/belgique/index.php/station/vrijlibre/agimont/5544/21946",
    "source_city": "Dinant",
    "source_cp": "5500",
    "location_id": "BE_nm_1366"
  },
  {
    "id": "21457",
    "name": "STATIONRS Truck Stop",
    "brand": "",
    "address": "rue Emile Collard 7, 5520 Anthée",
    "lat": 50.239532797597,
    "lng": 4.7564949134613,
    "fuel": "95",
    "fuel_name": "Super 95 (E10)",
    "price": 1.65,
    "update_date": "26/06/26",
    "url": "https://carbu.com/belgique/index.php/station/vrijlibre/anthee/5520/21457",
    "source_city": "Dinant",
    "source_cp": "5500",
    "location_id": "BE_nm_1366"
  },
  {
    "id": "2868",
    "name": "Tourneur Florennes",
    "brand": "",
    "address": "Place Verte 19, 5620 Florennes",
    "lat": 50.249602047027,
    "lng": 4.6065948983212,
    "fuel": "95",
    "fuel_name": "Super 95 (E10)",
    "price": 1.65,
    "update_date": "29/06/26",
    "url": "https://carbu.com/belgique/index.php/station/tourneur/florennes/5620/2868",
    "source_city": "Dinant",
    "source_cp": "5500",
    "location_id": "BE_nm_1366"
  },
  {
    "id": "21920",
    "name": "DATS 24 Champion",
    "brand": "dats24.gif",
    "address": "chaussée de Louvain 552, 5020 Champion",
    "lat": 50.4889837,
    "lng": 4.8942143,
    "fuel": "95",
    "fuel_name": "Super 95 (E10)",
    "price": 1.651,
    "update_date": "29/06/26",
    "url": "https://carbu.com/belgique/index.php/station/dats24/champion/5020/21920",
    "source_city": "Andenne",
    "source_cp": "5300",
    "location_id": "BE_nm_1284"
  },
  {
    "id": "3748",
    "name": "DATS 24 Colruyt Salzinnes",
    "brand": "dats24.gif",
    "address": "Chaussée de Charleroi 16, 5000 Namur",
    "lat": 50.4635819,
    "lng": 4.8435806,
    "fuel": "95",
    "fuel_name": "Super 95 (E10)",
    "price": 1.651,
    "update_date": "29/06/26",
    "url": "https://carbu.com/belgique/index.php/station/dats24/namur/5000/3748",
    "source_city": "Andenne",
    "source_cp": "5300",
    "location_id": "BE_nm_1284"
  },
  {
    "id": "887",
    "name": "Lukoil Bouge",
    "brand": "lukoil.gif",
    "address": "Chaussee De Louvain 171, 5004 Bouge",
    "lat": 50.47527637181,
    "lng": 4.8741541338684,
    "fuel": "95",
    "fuel_name": "Super 95 (E10)",
    "price": 1.651,
    "update_date": "29/06/26",
    "url": "https://carbu.com/belgique/index.php/station/lukoil/bouge/5004/887",
    "source_city": "Andenne",
    "source_cp": "5300",
    "location_id": "BE_nm_1284"
  },
  {
    "id": "715",
    "name": "PMO Kluisbergen",
    "brand": "66_D2404-37534 PMO Logo2.jpg",
    "address": "Oudenaardebaan 10, 9690 Kluisbergen",
    "lat": 50.793311991464,
    "lng": 3.5120793672982,
    "fuel": "95",
    "fuel_name": "Super 95 (E10)",
    "price": 1.651,
    "update_date": "29/06/26",
    "url": "https://carbu.com/belgique/index.php/station/pmo/kluisbergen/9690/715",
    "source_city": "Waregem",
    "source_cp": "8790",
    "location_id": "BE_foc_2484"
  },
  {
    "id": "376",
    "name": "Q8 Easy Bouge",
    "brand": "q8_easy.gif",
    "address": "Chaussée De Louvain 390, 5004 Bouge",
    "lat": 50.480898089706,
    "lng": 4.8830758184547,
    "fuel": "95",
    "fuel_name": "Super 95 (E10)",
    "price": 1.651,
    "update_date": "29/06/26",
    "url": "https://carbu.com/belgique/index.php/station/q8-easy/bouge/5004/376",
    "source_city": "Andenne",
    "source_cp": "5300",
    "location_id": "BE_nm_1284"
  },
  {
    "id": "2095",
    "name": "Shell Express Bouge",
    "brand": "109_Shell_Express_Logo.png",
    "address": "Chaussée de Louvain 350, 5004 Bouge",
    "lat": 50.478818212834,
    "lng": 4.8796915545616,
    "fuel": "95",
    "fuel_name": "Super 95 (E10)",
    "price": 1.651,
    "update_date": "26/06/26",
    "url": "https://carbu.com/belgique/index.php/station/shell-express/bouge/5004/2095",
    "source_city": "Andenne",
    "source_cp": "5300",
    "location_id": "BE_nm_1284"
  },
  {
    "id": "2823",
    "name": "TotalEnergies Bouge",
    "brand": "85_Logo_TotalEnergies.png",
    "address": "Chaussee De Louvain 387, 5004 Bouge",
    "lat": 50.48079067916,
    "lng": 4.8821516183853,
    "fuel": "95",
    "fuel_name": "Super 95 (E10)",
    "price": 1.651,
    "update_date": "29/06/26",
    "url": "https://carbu.com/belgique/index.php/station/totalenergies/bouge/5004/2823",
    "source_city": "Andenne",
    "source_cp": "5300",
    "location_id": "BE_nm_1284"
  },
  {
    "id": "1880",
    "name": "Dats 24 Bilzen",
    "brand": "dats24.gif",
    "address": "Tongersestraat 102, 3740 Bilzen",
    "lat": 50.859383026991,
    "lng": 5.5009201662705,
    "fuel": "95",
    "fuel_name": "Super 95 (E10)",
    "price": 1.652,
    "update_date": "29/06/26",
    "url": "https://carbu.com/belgique/index.php/station/dats24/bilzen/3740/1880",
    "source_city": "Tongeren",
    "source_cp": "3700",
    "location_id": "BE_li_686"
  },
  {
    "id": "822",
    "name": "Lukoil Hoeselt",
    "brand": "lukoil.gif",
    "address": "Bilzersteenweg 53, 3730 Hoeselt",
    "lat": 50.856219726355,
    "lng": 5.4977352281724,
    "fuel": "95",
    "fuel_name": "Super 95 (E10)",
    "price": 1.652,
    "update_date": "29/06/26",
    "url": "https://carbu.com/belgique/index.php/station/lukoil/hoeselt/3730/822",
    "source_city": "Tongeren",
    "source_cp": "3700",
    "location_id": "BE_li_686"
  },
  {
    "id": "1957",
    "name": "Shell Express Strombeek",
    "brand": "109_Shell_Express_Logo.png",
    "address": "Acacialaan 51, 1853 Strombeek-Bever",
    "lat": 50.904313082826,
    "lng": 4.3489653202378,
    "fuel": "95",
    "fuel_name": "Super 95 (E10)",
    "price": 1.652,
    "update_date": "26/06/26",
    "url": "https://carbu.com/belgique/index.php/station/shell-express/strombeek-bever/1853/1957",
    "source_city": "Vilvoorde",
    "source_cp": "1800",
    "location_id": "BE_bf_272"
  },
  {
    "id": "1958",
    "name": "Shell Express Strombeek-Bever",
    "brand": "109_Shell_Express_Logo.png",
    "address": "Romeinsesteenweg 572, 1853 Strombeek-Bever",
    "lat": 50.902324246089,
    "lng": 4.3392541269143,
    "fuel": "95",
    "fuel_name": "Super 95 (E10)",
    "price": 1.652,
    "update_date": "26/06/26",
    "url": "https://carbu.com/belgique/index.php/station/shell-express/strombeek-bever/1853/1958",
    "source_city": "Vilvoorde",
    "source_cp": "1800",
    "location_id": "BE_bf_272"
  },
  {
    "id": "3897",
    "name": "Shell Express Strombeek-Bever",
    "brand": "109_Shell_Express_Logo.png",
    "address": "Chaussée Romaine 440, 1853 Strombeek-Bever",
    "lat": 50.901401909362,
    "lng": 4.3547915239258,
    "fuel": "95",
    "fuel_name": "Super 95 (E10)",
    "price": 1.652,
    "update_date": "26/06/26",
    "url": "https://carbu.com/belgique/index.php/station/shell-express/strombeek-bever/1853/3897",
    "source_city": "Vilvoorde",
    "source_cp": "1800",
    "location_id": "BE_bf_272"
  },
  {
    "id": "844",
    "name": "Lukoil Bruxelles",
    "brand": "lukoil.gif",
    "address": "Chaussée de Louvain 1024, 1140 Evere",
    "lat": 50.860313763247,
    "lng": 4.4200072123032,
    "fuel": "95",
    "fuel_name": "Super 95 (E10)",
    "price": 1.654,
    "update_date": "29/06/26",
    "url": "https://carbu.com/belgique/index.php/station/lukoil/evere/1140/844",
    "source_city": "Vilvoorde",
    "source_cp": "1800",
    "location_id": "BE_bf_272"
  },
  {
    "id": "1607",
    "name": "Q8 easy Evere",
    "brand": "q8_easy.gif",
    "address": "chaussée de Louvain 949, 1140 Evere",
    "lat": 50.860894068896,
    "lng": 4.4209666944428,
    "fuel": "95",
    "fuel_name": "Super 95 (E10)",
    "price": 1.654,
    "update_date": "29/06/26",
    "url": "https://carbu.com/belgique/index.php/station/q8-easy/evere/1140/1607",
    "source_city": "Vilvoorde",
    "source_cp": "1800",
    "location_id": "BE_bf_272"
  },
  {
    "id": "140",
    "name": "DATS 24 Colruyt Aalst",
    "brand": "dats24.gif",
    "address": "Chaussée de Bruxelles 41, 9300 Aalst",
    "lat": 50.932999572716,
    "lng": 4.0544060674591,
    "fuel": "95",
    "fuel_name": "Super 95 (E10)",
    "price": 1.656,
    "update_date": "29/06/26",
    "url": "https://carbu.com/belgique/index.php/station/dats24/aalst/9300/140",
    "source_city": "Aalst",
    "source_cp": "9300",
    "location_id": "BE_foi_2633"
  },
  {
    "id": "1226",
    "name": "ESSO Aarschot",
    "brand": "esso.gif",
    "address": "Leuvensesteenweg 147, 3200 Aarschot",
    "lat": 50.98005,
    "lng": 4.821137,
    "fuel": "95",
    "fuel_name": "Super 95 (E10)",
    "price": 1.656,
    "update_date": "29/06/26",
    "url": "https://carbu.com/belgique/index.php/station/esso/aarschot/3200/1226",
    "source_city": "Leuven",
    "source_cp": "3000",
    "location_id": "BE_bf_468"
  },
  {
    "id": "664",
    "name": "Gabriëls Erembodegem",
    "brand": "gabriels.gif",
    "address": "Brusselbaan 290, 9320 Erembodegem",
    "lat": 50.915471958362,
    "lng": 4.0872075592163,
    "fuel": "95",
    "fuel_name": "Super 95 (E10)",
    "price": 1.656,
    "update_date": "29/06/26",
    "url": "https://carbu.com/belgique/index.php/station/gabriels/erembodegem/9320/664",
    "source_city": "Aalst",
    "source_cp": "9300",
    "location_id": "BE_foi_2633"
  },
  {
    "id": "665",
    "name": "Gabriëls Hofstade",
    "brand": "gabriels.gif",
    "address": "Hekkestraat 41, 9308 Hofstade",
    "lat": 50.966136567218,
    "lng": 4.0432503680535,
    "fuel": "95",
    "fuel_name": "Super 95 (E10)",
    "price": 1.656,
    "update_date": "29/06/26",
    "url": "https://carbu.com/belgique/index.php/station/gabriels/hofstade/9308/665",
    "source_city": "Aalst",
    "source_cp": "9300",
    "location_id": "BE_foi_2633"
  },
  {
    "id": "839",
    "name": "Lukoil",
    "brand": "lukoil.gif",
    "address": "rue de la Clef 73, 4621 Retinne",
    "lat": 50.619298300849,
    "lng": 5.6969521951065,
    "fuel": "95",
    "fuel_name": "Super 95 (E10)",
    "price": 1.656,
    "update_date": "29/06/26",
    "url": "https://carbu.com/belgique/index.php/station/lukoil/retinne/4621/839",
    "source_city": "Verviers",
    "source_cp": "4800",
    "location_id": "BE_lg_1140"
  },
  {
    "id": "953",
    "name": "Lukoil Arschot",
    "brand": "lukoil.gif",
    "address": "Terheidelaan 71, 3200 Aarschot",
    "lat": 50.9916402,
    "lng": 4.818116,
    "fuel": "95",
    "fuel_name": "Super 95 (E10)",
    "price": 1.656,
    "update_date": "29/06/26",
    "url": "https://carbu.com/belgique/index.php/station/lukoil/aarschot/3200/953",
    "source_city": "Leuven",
    "source_cp": "3000",
    "location_id": "BE_bf_468"
  },
  {
    "id": "1114",
    "name": "Maes Aalst",
    "brand": "46_MAES LOGO rgb.jpg",
    "address": "Geraardsbergsestraat 131, 9300 Aalst",
    "lat": 50.93028,
    "lng": 4.035646,
    "fuel": "95",
    "fuel_name": "Super 95 (E10)",
    "price": 1.656,
    "update_date": "29/06/26",
    "url": "https://carbu.com/belgique/index.php/station/maes/aalst/9300/1114",
    "source_city": "Aalst",
    "source_cp": "9300",
    "location_id": "BE_foi_2633"
  },
  {
    "id": "3465",
    "name": "Maes Gits",
    "brand": "46_MAES LOGO rgb.jpg",
    "address": "Bruggesteenweg 136, 8830 Gits",
    "lat": 50.9812014,
    "lng": 3.118159,
    "fuel": "95",
    "fuel_name": "Super 95 (E10)",
    "price": 1.656,
    "update_date": "29/06/26",
    "url": "https://carbu.com/belgique/index.php/station/maes/gits/8830/3465",
    "source_city": "Roeselare",
    "source_cp": "8800",
    "location_id": "BE_foc_2490"
  },
  {
    "id": "4298",
    "name": "Maes Hekelgem",
    "brand": "46_MAES LOGO rgb.jpg",
    "address": "Brusselbaan 285, 1790 Hekelgem",
    "lat": 50.912122,
    "lng": 4.121715,
    "fuel": "95",
    "fuel_name": "Super 95 (E10)",
    "price": 1.656,
    "update_date": "29/06/26",
    "url": "https://carbu.com/belgique/index.php/station/maes/hekelgem/1790/4298",
    "source_city": "Aalst",
    "source_cp": "9300",
    "location_id": "BE_foi_2633"
  },
  {
    "id": "654",
    "name": "Q8 Easy Betekom",
    "brand": "q8_easy.gif",
    "address": "Pastoor Pitetlaan 32, 3130 Betekom",
    "lat": 50.9867288,
    "lng": 4.784316,
    "fuel": "95",
    "fuel_name": "Super 95 (E10)",
    "price": 1.656,
    "update_date": "29/06/26",
    "url": "https://carbu.com/belgique/index.php/station/q8-easy/betekom/3130/654",
    "source_city": "Leuven",
    "source_cp": "3000",
    "location_id": "BE_bf_468"
  },
  {
    "id": "1547",
    "name": "Q8 easy Aalst",
    "brand": "q8_easy.gif",
    "address": "Albrechtlaan 56, 9300 Aalst",
    "lat": 50.936361582508,
    "lng": 4.0542928539674,
    "fuel": "95",
    "fuel_name": "Super 95 (E10)",
    "price": 1.656,
    "update_date": "29/06/26",
    "url": "https://carbu.com/belgique/index.php/station/q8-easy/aalst/9300/1547",
    "source_city": "Aalst",
    "source_cp": "9300",
    "location_id": "BE_foi_2633"
  },
  {
    "id": "1934",
    "name": "Q8 easy Hasselt Kuringen",
    "brand": "q8_easy.gif",
    "address": "Kuringersteenweg 381, 3511 Kuringen",
    "lat": 50.940834324879,
    "lng": 5.2968259312133,
    "fuel": "95",
    "fuel_name": "Super 95 (E10)",
    "price": 1.656,
    "update_date": "29/06/26",
    "url": "https://carbu.com/belgique/index.php/station/q8-easy/kuringen/3511/1934",
    "source_city": "Beringen",
    "source_cp": "3580",
    "location_id": "BE_li_629"
  },
  {
    "id": "1911",
    "name": "Q8 easy Mol",
    "brand": "q8_easy.gif",
    "address": "Turnhoutsebaan 270, 2400 Mol",
    "lat": 51.210173383758,
    "lng": 5.1157903519601,
    "fuel": "95",
    "fuel_name": "Super 95 (E10)",
    "price": 1.656,
    "update_date": "29/06/26",
    "url": "https://carbu.com/belgique/index.php/station/q8-easy/mol/2400/1911",
    "source_city": "Lommel",
    "source_cp": "3920",
    "location_id": "BE_li_800"
  },
  {
    "id": "18954",
    "name": "Rillaar Maes",
    "brand": "46_MAES LOGO rgb.jpg",
    "address": "Tieltseweg 110, 3202 Rillaar",
    "lat": 50.968032794882,
    "lng": 4.8941717911038,
    "fuel": "95",
    "fuel_name": "Super 95 (E10)",
    "price": 1.656,
    "update_date": "29/06/26",
    "url": "https://carbu.com/belgique/index.php/station/maes/rillaar/3202/18954",
    "source_city": "Tienen",
    "source_cp": "3300",
    "location_id": "BE_bf_541"
  },
  {
    "id": "2046",
    "name": "Shell Express Fleron",
    "brand": "109_Shell_Express_Logo.png",
    "address": "Rue Bureau 55, 4620 Fléron",
    "lat": 50.613723792765,
    "lng": 5.6933042502625,
    "fuel": "95",
    "fuel_name": "Super 95 (E10)",
    "price": 1.656,
    "update_date": "26/06/26",
    "url": "https://carbu.com/belgique/index.php/station/shell-express/fleron/4620/2046",
    "source_city": "Verviers",
    "source_cp": "4800",
    "location_id": "BE_lg_1140"
  },
  {
    "id": "21302",
    "name": "Shell Express Gilly",
    "brand": "109_Shell_Express_Logo.png",
    "address": "Chaussée de Fleurus 588, 6060 Gilly",
    "lat": 50.4313656,
    "lng": 4.5053668,
    "fuel": "95",
    "fuel_name": "Super 95 (E10)",
    "price": 1.656,
    "update_date": "29/06/26",
    "url": "https://carbu.com/belgique/index.php/station/shell-express/gilly/6060/21302",
    "source_city": "Charleroi",
    "source_cp": "6000",
    "location_id": "BE_ht_1578"
  },
  {
    "id": "2272",
    "name": "Shell Express Hasselt",
    "brand": "109_Shell_Express_Logo.png",
    "address": "Herkenrodesingel 2, 3500 Hasselt",
    "lat": 50.937969010622,
    "lng": 5.3156848601188,
    "fuel": "95",
    "fuel_name": "Super 95 (E10)",
    "price": 1.656,
    "update_date": "26/06/26",
    "url": "https://carbu.com/belgique/index.php/station/shell-express/hasselt/3500/2272",
    "source_city": "Beringen",
    "source_cp": "3580",
    "location_id": "BE_li_629"
  },
  {
    "id": "2169",
    "name": "Shell Express Tervuren",
    "brand": "109_Shell_Express_Logo.png",
    "address": "Leuvensesteenweg 98, 3080 Tervuren",
    "lat": 50.836045557872,
    "lng": 4.5357758380737,
    "fuel": "95",
    "fuel_name": "Super 95 (E10)",
    "price": 1.656,
    "update_date": "26/06/26",
    "url": "https://carbu.com/belgique/index.php/station/shell-express/tervuren/3080/2169",
    "source_city": "Leuven",
    "source_cp": "3000",
    "location_id": "BE_bf_468"
  },
  {
    "id": "2816",
    "name": "T-Express Dampremy",
    "brand": "321_TexpressLogo.png",
    "address": "Chaussée De Bruxelles 174, 6020 Dampremy",
    "lat": 50.419339156171,
    "lng": 4.4399053402976,
    "fuel": "95",
    "fuel_name": "Super 95 (E10)",
    "price": 1.656,
    "update_date": "29/06/26",
    "url": "https://carbu.com/belgique/index.php/station/t-express/dampremy/6020/2816",
    "source_city": "Charleroi",
    "source_cp": "6000",
    "location_id": "BE_ht_1578"
  },
  {
    "id": "2722",
    "name": "T-Express Wevelgem",
    "brand": "321_TexpressLogo.png",
    "address": "Menenstraat 560, 8560 Wevelgem",
    "lat": 50.800016498277,
    "lng": 3.1438247393299,
    "fuel": "95",
    "fuel_name": "Super 95 (E10)",
    "price": 1.656,
    "update_date": "29/06/26",
    "url": "https://carbu.com/belgique/index.php/station/t-express/wevelgem/8560/2722",
    "source_city": "Kortrijk",
    "source_cp": "8500",
    "location_id": "BE_foc_2360"
  },
  {
    "id": "4111",
    "name": "Tourneur Pont-de-Loup",
    "brand": "",
    "address": "rue du Campinaire 66, 6250 Pont-de-Loup",
    "lat": 50.408665348292,
    "lng": 4.5398868196781,
    "fuel": "95",
    "fuel_name": "Super 95 (E10)",
    "price": 1.656,
    "update_date": "29/06/26",
    "url": "https://carbu.com/belgique/index.php/station/tourneur/pont-de-loup/6250/4111",
    "source_city": "Charleroi",
    "source_cp": "6000",
    "location_id": "BE_ht_1578"
  },
  {
    "id": "4653",
    "name": "DATS 24 Blankenberge",
    "brand": "dats24.gif",
    "address": "Ruitersstraat 2, 8370 Blankenberge",
    "lat": 51.302333589596,
    "lng": 3.1438615613702,
    "fuel": "95",
    "fuel_name": "Super 95 (E10)",
    "price": 1.659,
    "update_date": "29/06/26",
    "url": "https://carbu.com/belgique/index.php/station/dats24/blankenberge/8370/4653",
    "source_city": "Oostende",
    "source_cp": "8400",
    "location_id": "BE_foc_2326"
  },
  {
    "id": "158",
    "name": "DATS 24 Gilly",
    "brand": "dats24.gif",
    "address": "Chaussée de Charleroi 61, 6060 Gilly",
    "lat": 50.421306,
    "lng": 4.477943,
    "fuel": "95",
    "fuel_name": "Super 95 (E10)",
    "price": 1.659,
    "update_date": "29/06/26",
    "url": "https://carbu.com/belgique/index.php/station/dats24/gilly/6060/158",
    "source_city": "Charleroi",
    "source_cp": "6000",
    "location_id": "BE_ht_1578"
  },
  {
    "id": "147",
    "name": "DATS 24 Roeselare",
    "brand": "dats24.gif",
    "address": "Noordlaan 32, 8800 Roeselare",
    "lat": 50.956219472958,
    "lng": 3.1192377962951,
    "fuel": "95",
    "fuel_name": "Super 95 (E10)",
    "price": 1.659,
    "update_date": "29/06/26",
    "url": "https://carbu.com/belgique/index.php/station/dats24/roeselare/8800/147",
    "source_city": "Roeselare",
    "source_cp": "8800",
    "location_id": "BE_foc_2490"
  },
  {
    "id": "19437",
    "name": "DATS 24 Roeselare Mandel",
    "brand": "dats24.gif",
    "address": "Beversesteenweg 202, 8800 Roeselare",
    "lat": 50.957741428344,
    "lng": 3.1321254819117,
    "fuel": "95",
    "fuel_name": "Super 95 (E10)",
    "price": 1.659,
    "update_date": "29/06/26",
    "url": "https://carbu.com/belgique/index.php/station/dats24/roeselare/8800/19437",
    "source_city": "Roeselare",
    "source_cp": "8800",
    "location_id": "BE_foc_2490"
  },
  {
    "id": "823",
    "name": "DATS 24 Wevelgem",
    "brand": "dats24.gif",
    "address": "Kortrijkstraat 226, 8560 Wevelgem",
    "lat": 50.812445,
    "lng": 3.195592,
    "fuel": "95",
    "fuel_name": "Super 95 (E10)",
    "price": 1.659,
    "update_date": "29/06/26",
    "url": "https://carbu.com/belgique/index.php/station/dats24/wevelgem/8560/823",
    "source_city": "Kortrijk",
    "source_cp": "8500",
    "location_id": "BE_foc_2360"
  },
  {
    "id": "155",
    "name": "DATS 24 moeskroen",
    "brand": "dats24.gif",
    "address": "Rue de Menin 483, 7700 Mouscron",
    "lat": 50.755278341869,
    "lng": 3.2004780489349,
    "fuel": "95",
    "fuel_name": "Super 95 (E10)",
    "price": 1.659,
    "update_date": "29/06/26",
    "url": "https://carbu.com/belgique/index.php/station/dats24/mouscron/7700/155",
    "source_city": "Kortrijk",
    "source_cp": "8500",
    "location_id": "BE_foc_2360"
  },
  {
    "id": "20884",
    "name": "Dats 24 Erpe-Mere",
    "brand": "dats24.gif",
    "address": "Gentsesteenweg 237, 9420 Erpe-Mere",
    "lat": 50.944568534548,
    "lng": 3.9732633245716,
    "fuel": "95",
    "fuel_name": "Super 95 (E10)",
    "price": 1.659,
    "update_date": "29/06/26",
    "url": "https://carbu.com/belgique/index.php/station/dats24/erpe-mere/9420/20884",
    "source_city": "Aalst",
    "source_cp": "9300",
    "location_id": "BE_foi_2633"
  },
  {
    "id": "1420",
    "name": "ESSO Express Deurle",
    "brand": "esso_express.gif",
    "address": "Xavier De Cocklaan 9, 9830 Sint-Martens-Latem",
    "lat": 50.997924509891,
    "lng": 3.6078190000001,
    "fuel": "95",
    "fuel_name": "Super 95 (E10)",
    "price": 1.659,
    "update_date": "29/06/26",
    "url": "https://carbu.com/belgique/index.php/station/esso-express/sint-martens-latem/9830/1420",
    "source_city": "Gent",
    "source_cp": "9000",
    "location_id": "BE_foi_2551"
  },
  {
    "id": "305",
    "name": "Esso Express Aalst",
    "brand": "esso_express.gif",
    "address": "Albrechtlaan 76, 9300 Aalst",
    "lat": 50.9381139,
    "lng": 4.05394866,
    "fuel": "95",
    "fuel_name": "Super 95 (E10)",
    "price": 1.659,
    "update_date": "29/06/26",
    "url": "https://carbu.com/belgique/index.php/station/esso-express/aalst/9300/305",
    "source_city": "Aalst",
    "source_cp": "9300",
    "location_id": "BE_foi_2633"
  },